지번주소,도로명주소,사업장명,위도_user,경도_user,전처리완_전화번호
서울특별시 도봉구 쌍문동 509번지 1호 백운빌딩,"서울특별시 도봉구 삼양로 616, 2-5층 (쌍문동)",퍼스트요양병원,37.6579955,127.0141343,02-902-3294
,"서울특별시 중랑구 망우로 400, 2층~3층(201호~204호,301호~304호) (망우동)",경동한방병원,37.5987098,127.0966238,02-2038-0100
서울특별시 강남구 도곡동 146-92 강남세브란스병원,"서울특별시 강남구 언주로 211, 강남세브란스병원 (도곡동)",연세대학교의과대학 강남세브란스병원,37.4925494,127.0465277,02-2019-3114
서울특별시 금천구 가산동 151번지 36호,서울특별시 금천구 가산로 122 (가산동),성지병원,37.476546,126.8929109,02-867-7056
,"서울특별시 강남구 역삼로 245, 지하2층일부 1층일부 2~7층 (역삼동)",하나이비인후과병원,37.4979314,127.0429957,02-6925-1111
서울특별시 송파구 가락동 48-3 지하2층~지상7층,"서울특별시 송파구 송이로 81, 지하2~지상7층 (가락동)",리워크병원,37.4987715,127.1203672,02-501-1652
서울특별시 강서구 내발산동 654,서울특별시 강서구 강서로 357 (내발산동),서울필병원,37.5524944,126.8333061,02-1600-8205
서울특별시 서초구 서초동 1515번지 4호 서원빌딩,"서울특별시 서초구 명달로 102, 서원빌딩 1-6층 (서초동)",올바로병원,37.4862214,127.0044593,02-587-8875
"서울특별시 강남구 삼성동 52-17 마디빌딩 지하3층~지하1층,2층~9층","서울특별시 강남구 삼성로 646, 마디빌딩 B3~B1,2~9층 (삼성동)",청담해리슨병원,37.5177039,127.0512128,02-333-8801
,"서울특별시 강남구 밤고개로1길 10, 315호 (수서동, 수서현대벤쳐빌)",기쁨정원치과병원,37.4879855,127.1017774,02-568-2879
서울특별시 양천구 신정동 1268 복합메디컬타운,"서울특별시 양천구 중앙로 181, 복합메디컬타운 3~8층 (신정동)",서울스마트요양병원,37.5127536,126.8557987,02-2601-7111
서울특별시 송파구 석촌동 174번지 13호 한솔병원,"서울특별시 송파구 송파대로 445, 한솔병원 (석촌동)",한솔병원,37.5060826,127.1059173,02-2147-6000
서울특별시 서초구 서초동 1657-1 서울365mc병원,"서울특별시 서초구 서초중앙로 126, 서울365mc병원 지하1층, 2~13층 (서초동)",365엠씨(mc)병원,37.492992,127.0141168,02-3474-3653
"서울특별시 강북구 미아동 304번지 3호 지하1층, 2층~5층","서울특별시 강북구 도봉로 187, 지하1층, 2층~5층 (미아동)",강북으뜸병원,37.6254134,127.0261716,02-986-0334
서울특별시 강남구 논현동 63-8 나누리병원,"서울특별시 강남구 언주로 731, 나누리병원 (논현동)",나누리병원,37.5202957,127.0339776,02-6003-9718
서울특별시 강남구 논현동 218-11 강남웨딩홀,"서울특별시 강남구 언주로 631, 강남웨딩홀 지하2,2~6층 (논현동)",강남지인병원,37.5136787,127.0317124,02-6985-4119
서울특별시 도봉구 쌍문동 503-8 2~5층,"서울특별시 도봉구 삼양로 574, 2~5층 (쌍문동)",서울사랑요양병원,37.65432699999999,127.0132386,02-2039-5099
서울특별시 송파구 풍납동 269-3 지하1~지상5층,"서울특별시 송파구 토성로 20, 다보라 지하1~5층 (풍납동)",동행한방병원,37.53054059999999,127.1127197,1811-6235
"서울특별시 서초구 양재동 20번지 7호 /양재동 20-4, 2층/양재동 20-20(지1~3층)",서울특별시 서초구 바우뫼로35길 32 (양재동),참포도나무병원,37.47992920000001,127.0386696,02-1588-0831
,서울특별시 영등포구 양평로22사길 9 (양평동5가),서울은빛요양병원,37.5408432,126.8949748,02-2634-7000
,"서울특별시 노원구 동일로 987, 태릉마이크로병원건물 2,5,6,7층 (공릉동)",모아한방병원,37.6181413,127.0748475,1533-7585
서울특별시 서초구 서초동 1677번지 8호 프로비스타,"서울특별시 서초구 서초대로 338, 프로비스타 지하1층 지상2~8층 (서초동)",모커리한방병원,37.4948162,127.0186113,02-526-0820
서울특별시 강북구 미아동 62-38 서울유병원BK빌딩,"서울특별시 강북구 도봉로 77, 지하2층~지하1층, 3층~8층층 (미아동)",서울유병원,37.6160654,127.0295688,02-1670-8875
서울특별시 강남구 논현동 142-3 자생한방병원,"서울특별시 강남구 강남대로 536, 자생한방병원 (논현동)",자생한방병원,37.5098959,127.0223269,02-1577-0007
,"서울특별시 강동구 천호대로 1133, 서울M타워 5,8,9,10층 (길동)",강동기운찬한방병원,37.5346961,127.1375085,02-474-8575
서울특별시 강동구 상일제1동 149번지,서울특별시 강동구 동남로 892 (상일제1동),강동경희대학교치과병원,37.5532303,127.1574069,02-440-7114
서울특별시 동대문구 신설동 76-34,"서울특별시 동대문구 한빛로 12, 지하1층 ~ 4층 (신설동)",더드림요양병원,37.5767059,127.0249341,02-6674-7575
"서울특별시 강동구 성내동 452 지하3, 지하1 일부, 1~5층","서울특별시 강동구 강동대로 143-52, 지하3, 지하1 일부, 1~5층 (성내동)",포레스트한방병원,37.5278739,127.1205655,02-1899-5868
서울특별시 서초구 방배동 488-6 지하4층~지상6층,"서울특별시 서초구 남부순환로 2205, 지하4층~지상6층 (방배동)",연세사랑병원,37.4741166,126.9935116,02-2046-5201
서울특별시 양천구 신정동 907번지 12호,서울특별시 양천구 오목로 199 (신정동),목동예치과병원,37.5256907,126.8596364,6200-8801
서울특별시 강동구 천호동 362번지 3호 로뎀빌딩,"서울특별시 강동구 올림픽로80길 31, 로뎀빌딩 (천호동)",강동성모요양병원,37.5429357,127.1274239,02-488-0020
"서울특별시 관악구 신림동 1421번지 55호 지1층, 2~11층","서울특별시 관악구 신림로64길 11, 지1층,2~11층 (신림동, 성재빌딩)",강남수요양병원,37.4851269,126.9304423,888-8866
,서울특별시 송파구 오금로 173 (방이동),포레힐요양병원,37.5146174,127.1185123,02-2203-6100
서울특별시 강남구 논현동 94-22 카로시티Ⅲ,"서울특별시 강남구 선릉로 751, 카로시티Ⅲ 지하1층, 지상1층~7층 (논현동)",모두가행복한연세병원,37.5218043,127.0391147,02-1600-2959
,"서울특별시 송파구 올림픽로 319, 2층 (신천동, 서울시교통회관건물)",케이치과병원,37.5156938,127.1054566,02-487-8275
서울특별시 강북구 수유동 188번지 1호 광산타워,"서울특별시 강북구 한천로 1083, 수유동 (수유동, 광산타워)",강북우리들병원,37.6424949,127.0226569,02-6222-1000
서울특별시 서초구 방배1동 896번지 1호,서울특별시 서초구 서초대로 116 (방배동),의료법인 청해의료재단 제일병원,37.4878294,126.995077,02-586-5557
,"서울특별시 노원구 한글비석로 68, 을지병원 (하계동)",노원을지대학교병원,37.6363293,127.0697068,02-970-8000
,서울특별시 중랑구 공릉로 76 (묵동),의료법인한국의료재단프라임병원,37.6172319,127.0794698,02-975-7500
"서울특별시 강동구 천호동 401-5 5층일부,6~7층","서울특별시 강동구 구천면로 233, 5층일부,6~7층 (천호동)",경희디에스한방병원,37.5416648,127.1299092,02-452-7075
서울특별시 도봉구 방학동 665-6,서울특별시 도봉구 도당로 51(방학동),가화한방병원,37.6628275,127.0343551,02-955-1772
서울특별시 강북구 미아동 317번지 3호 서울민병원,"서울특별시 강북구 도봉로 155, 서울민병원 (미아동)",민병원,37.6224982,127.0272256,02-982-3114
서울특별시 서초구 방배동 795번지 22호 창생빌딩,"서울특별시 서초구 방배로 223, 창생빌딩 2~7층 (방배동)",참푸른병원,37.4930272,126.9899375,02-6247-8800
서울특별시 서초구 방배동 837번지 13호,서울특별시 서초구 방배로 186 (방배동),재단법인 동국한방병원,37.4902776,126.9923875,02-536-5599
,"서울특별시 중랑구 봉화산로 194, 신아타운 4,5층 (신내동)",로하스동서울요양병원,37.6064252,127.0947293,02-577-9696
서울특별시 강동구 성내동 551번지 3호 인애가한방병원,"서울특별시 강동구 성내로6길 15, 인애가한방병원 (성내동)",의료법인일맥의료재단 강동인애가한방병원,37.5288198,127.1229842,02-477-9661
,"서울특별시 송파구 석촌호수로 61, 트리지움상가 201호 (잠실동)",더바름치과병원,37.5111312,127.0860917,02-2202-2080
서울특별시 도봉구 창동 749번지 10호,"서울특별시 도봉구 도봉로 628 (창동, 바로선병원)",바로선병원,37.6603687,127.0421546,02-1666-5853
,"서울특별시 노원구 동일로 1342, 상계백병원 (상계동)",인제대학교 상계백병원,37.6485082,127.0631429,02-950-1114
,"서울특별시 강동구 양재대로 1461, SC MEDI TOWER 6-13층 (길동)",서울프라임한방병원,37.5396157,127.1459293,02-6428-7575
,서울특별시 서대문구 연세로 50-1 (신촌동),연세대학교의과대학세브란스병원,37.5646993,126.9394972,02-2228-0114
서울특별시 송파구 방이동 109번지 3호,"서울특별시 송파구 오금로 129, 지하1층~6층 (방이동)",포레메디한방병원,37.5117208,127.1096341,02-1899-8580
서울특별시 성북구 정릉동 674-3 그린존,"서울특별시 성북구 솔샘로1길 19, 그린존 1층~6층 (정릉동)",플러스요양병원,37.6083071,127.0039526,02-6953-9856
,"서울특별시 구로구 경인로 393-7, 일이삼전자타운 2동 6,7층 (고척동)",포그니병원,37.4974023,126.8630938,02-2613-7000
서울특별시 영등포구 영등포동4가 153번지 1호,서울특별시 영등포구 영신로34길 5 (영등포동4가),덕수의료재단 서울브레인병원,37.520024,126.9018775,02-2678-8225
,"서울특별시 송파구 백제고분로 185, 2~9층 (잠실동)",연세우리병원,37.5067945,127.0830482,02-1533-1755
서울특별시 송파구 가락동 36번지 1호 한미사랑병원,"서울특별시 송파구 중대로 191, 서울힐링요양병원 (가락동)",서울힐링요양병원,37.4990414,127.1256696,02-1833-7037
서울특별시 중랑구 망우동 128-29 동부제일병원,"서울특별시 중랑구 망우로 511, 동부제일병원 지하1~6층 (망우동)",의료법인풍산의료재단동부제일병원,37.6007636,127.1092683,02-437-5011
,서울특별시 서초구 헌릉로 260 (내곡동),서울특별시어린이병원,37.4554103,127.0692786,02-570-8000
서울특별시 관악구 봉천동 1673번지 17호,서울특별시 관악구 남부순환로 1867 (봉천동),장튼위튼병원,37.4798361,126.9573171,02-8787-119
서울특별시 강북구 번동 105번지 1호,서울특별시 강북구 월계로 183 (번동),꿈의숲요양병원,37.6205634,127.0449141,02-987-9988
서울특별시 강북구 미아동 317번지 1호 서울컨벤션웨딩홀,"서울특별시 강북구 도봉로 161, 서울컨벤션웨딩홀 (미아동)",강북휴요양병원,37.6232419,127.0270849,02-982-7080
서울특별시 강동구 천호동 421번지 4호 행복타워빌딩,"서울특별시 강동구 구천면로 202, 행복타워빌딩 B2,2,3,4,6층 (천호동)",강동우리들요양병원,37.5443765,127.1276202,02-474-7570
,"서울특별시 강동구 양재대로 1525, 명품빌딩 (천호동)",올바른서울병원,37.5420685,127.1412599,02-1588-7740
,"서울특별시 송파구 송이로 123, 국립경찰병원 (가락동)",경찰병원,37.4960568,127.1234223,02-3400-1114
서울특별시 강서구 등촌동 632-6 파인블루빌딩,"서울특별시 강서구 양천로 600, 파인블루빌딩 지하1층,2,7,8층 ,9,10호 (등촌동)",서울고든병원,37.5555145,126.8646895,1670-0124
서울특별시 성북구 안암동5가 126번지 1호 고려대병원,"서울특별시 성북구 고려대로 73, 고려대병원 (안암동5가)",학교법인 고려중앙학원 고려대학교의과대학부속병원(안암병원),37.5870416,127.0265402,1577-0083
서울특별시 도봉구 창동 650-46 강북힘찬병원,"서울특별시 도봉구 도봉로 446, 강북힘찬병원 (창동)",의료법인 상원의료재단 강북힘찬병원,37.6457194,127.0332186,02-1899-2226
서울특별시 강북구 번동 463번지 44호,"서울특별시 강북구 도봉로 374 (번동, 서울현대병원)",서울현대병원,37.6402518,127.0285046,02-1588-6853
서울특별시 강동구 천호동 425-5 대우 한강 베네시티,"서울특별시 강동구 올림픽로 664, 4층 (천호동, 대우 한강 베네시티)",아이엠치과병원,37.5406102,127.1249224,02-2248-7528
서울특별시 송파구 마천동 32번지 윤진프라자타워,"서울특별시 송파구 마천로 238, 윤진프라자타워 (마천동)",송파그랜드요양병원,37.4996571,127.143733,02-406-0999
,서울특별시 서초구 반포대로 222 (반포동),학교법인가톨릭학원가톨릭대학교서울성모병원,37.5000792,127.005247,02-1588-1511
서울특별시 구로구 구로동 1126번지 34호 금강빌딩,"서울특별시 구로구 시흥대로 547, 금강빌딩 지하1,2~10층(구로동), 디지털로32가길 25, 티타운빌딩 B102,103,205,206,302 (구로동)",참튼튼병원,37.4821697,126.8988986,070-4268-7246
,서울특별시 송파구 송이로 148 (가락동),서울석병원,37.49379709999999,127.1239734,02-403-7585
서울특별시 강남구 논현동 54-4,"서울특별시 강남구 학동로 117, B1~9F층 (논현동)",무이재한방병원,37.5121007,127.0236318,02-1899-1209
서울특별시 양천구 목동 404번지 3호,"서울특별시 양천구 신목로 120 (목동, 힘찬병원)",힘찬병원,37.5248645,126.8768227,02-1899-2221
"서울특별시 양천구 목1동 404번지 256호 지하2층~지상6층, 8층~9층","서울특별시 양천구 오목로 351, B2~6,8~9층 (목동)",의료법인해인의료재단 동신한방병원,37.5246179,126.8767614,02-2640-2700
서울특별시 양천구 신정동 899번지 1호 홍익병원본관,"서울특별시 양천구 목동로 225, 홍익병원본관 (신정동)",홍익병원,37.5284913,126.8636621,02-2693-5555
서울특별시 송파구 송파동 20번지 7호 유니온테크송파빌딩,"서울특별시 송파구 백제고분로 405, 유니온테크송파빌딩 (송파동)",빠른병원,37.5074701,127.1096805,02-423-8288
서울특별시 영등포구 영등포동3가 7 영등포 점프밀라노,"서울특별시 영등포구 영중로 28, 영등포 점프밀라노 8층 (영등포동3가)",경희우리한방병원,37.5190785,126.9055509,02-2679-1079
,서울특별시 중구 을지로 245 (을지로6가),국립중앙의료원,37.5677844,127.0068849,02-2260-7114
서울특별시 노원구 상계동 301-6 파로스병원,서울특별시 노원구 노원로 416(상계동),새힘병원,37.6537145,127.0678978,02-6956-1231
서울특별시 강남구 논현동 235-11 센트럴타워,"서울특별시 강남구 봉은사로 213, 센트럴타워 5~7층 (논현동)",힘찬큐한방병원,37.5080436,127.035373,02-518-8599
서울시 성북구 장위3동 50-50,서울특별시 성북구 화랑로 271 (장위동),의료법인유라의료재단 온누리요양병원,37.61518720000001,127.0498879,02-919-2700
,"서울특별시 강동구 올림픽로 546, G.M.F.빌딩 (성내동)",청병원,37.5302776,127.1211744,02-2202-3114
서울특별시 송파구 삼전동 38-5,서울특별시 송파구 삼전로2길 11 (삼전동),강남수병원,37.501334,127.0861523,02-421-7100
"서울특별시 서초구 방배동 936-12 지하1층일부,2~5층","서울특별시 서초구 방배로 151, 지하1층일부,2~5층 (방배동)",척바른병원,37.4871957,126.993559,
,"서울특별시 강동구 강동대로 243, 풍원빌딩 (성내동)",치휴한방병원,37.522293,127.1329001,02-6416-1010
,서울특별시 성북구 안암로 99 (안암동5가),의료법인 우신향병원,37.5847829,127.0311492,02-926-7505
서울특별시 중랑구 망우동 460-1 연세산돌병원,"서울특별시 중랑구 봉우재로 234, 연세산돌병원 지하1층~7층 (망우동)",연세산돌병원,37.5951403,127.0988637,1533-0032
"서울특별시 구로구 개봉동 143-1 오류빌딩 지하1층, 1층,2층,3층,4층,5층,6층","서울특별시 구로구 경인로 297, 오류빌딩 (개봉동)",서울브이아이피(VIP)요양병원,37.4980377,126.8534184,02-2611-8883
서울특별시 강동구 길동 412-10 SC MEDI TOWER,"서울특별시 강동구 양재대로 1461, SC MEDI TOWER 2,4,5층 (길동)",위드힘병원,37.5396157,127.1459293,02-473-1531
"서울특별시 강남구 역삼동 642번지 7호 2층,3층일부","서울특별시 강남구 논현로 507 (역삼동, 성지하이츠3차빌딩 2층,3층일부)",선한목자병원,37.5015391,127.0361428,02-557-1004
,"서울특별시 노원구 노원로 75, 한국원자력의학원 (공릉동)",한국원자력의학원원자력병원,37.6294332,127.0826468,02-970-2114
,서울특별시 도봉구 도봉로 604 (창동),에이치큐브병원,37.65831610000001,127.0410942,02-900-2000
서울특별시 동대문구 장안동 311-5 장안동의료시설,"서울특별시 동대문구 장한로32길 7, 장안동의료시설 (장안동)",엔플러스병원,37.5754498,127.0725715,02-6235-7575
,"서울특별시 송파구 중대로 68 (문정동, 훼밀리샤르망 505호)",수치과병원,37.4915498,127.1164282,02-431-3521
,"서울특별시 송파구 삼학사로 53, 태영빌딩 (삼전동)",서울연세한방병원,37.5019615,127.0966265,02-573-9573
서울특별시 송파구 풍납동 388번지 1호 서울아산병원,"서울특별시 송파구 올림픽로43길 88, 서울아산병원 (풍납동)",재단법인아산사회복지재단 서울아산병원,37.5265455,127.1081223,02-3010-3114
서울특별시 강서구 화곡동 786번지 6호,서울특별시 강서구 국회대로 233 (화곡동),새미래요양병원,37.5297378,126.8608728,02-2061-5544
,서울특별시 은평구 통일로 935 (갈현동),은평요양병원,37.621541,126.913578,02-384-2311
,"서울특별시 강남구 선릉로 404, 더드림병원 (대치동)",강남더드림병원,37.5009796,127.0509508,-2838
서울특별시 서초구 방배동 852번지 20호,"서울특별시 서초구 방배로 177, 4~6층 (방배동)",가야치과병원,37.4892813,126.9922568,02-599-2472
서울특별시 광진구 자양동 685번지,"서울특별시 광진구 자양로 38, 편안한요양병원 (자양동)",편안한요양병원,37.5315816,127.086441,02-456-8898
,"서울특별시 서초구 방배로 245, 3층 (방배동, 현대클리닉빌딩)",필치과병원,37.4947875,126.9888737,02-593-0725
,서울특별시 중랑구 망우로 476 (망우동),서울라본병원,37.600322,127.1050915,02-2209-6677
"서울특별시 마포구 용강동 473-1 대현빌딩 지하층 , 지상2층~지상6층","서울특별시 마포구 토정로 271, 대현빌딩 지하1층,지상2~6층 (용강동)",서울연세병원,37.542447,126.940288,02-2293-7582
서울특별시 서초구 잠원동 38번지 25호 기린한방병원,"서울특별시 서초구 신반포로49길 3, 기린한방병원 (잠원동)",길인의료재단 기린한방병원,37.5110423,127.0200781,515-7300
서울특별시 강남구 논현동 241-16,"서울특별시 강남구 학동로50길 7, 2~4,5(일부)층 (논현동)",리봄한방병원,37.5162575,127.0400615,02-546-1357
서울특별시 강서구 마곡동 795-7 열린프라자,"서울특별시 강서구 마곡중앙6로 93, 열린프라자 6,7,10층 602,603,604,605호 (마곡동)",면력한방병원,37.5601822,126.8376983,02-3661-1075
,서울특별시 강동구 동남로 892 (상일동),강동경희대학교한방병원,37.5511028,127.1696401,02-440-7114
서울특별시 송파구 송파1동 20번지 8호 지하2층~지상7층,"서울특별시 송파구 백제고분로 407 (송파동, 지하 2층~7층)",강남힘찬병원,37.5076335,127.1098297,1899-2225
서울특별시 강서구 등촌동 726 가양역 두산위브,"서울특별시 강서구 공항대로45길 15, 상가동 7~11층 (등촌동, 가양역 두산위브)",강서365한방병원,37.5561389,126.8544821,02-3663-3655
서울특별시 도봉구 창동 553-2 3~7층,"서울특별시 도봉구 덕릉로 215, 3~7층 (창동)",자향한방병원,37.6375691,127.0364898,02-991-1075
서울특별시 성동구 송정동 81번지 14호,서울특별시 성동구 광나루로 243 (송정동),학교법인대진교육재단 제인병원,37.5494633,127.0570131,02-3408-2100
서울특별시 양천구 신월동 48-14,서울특별시 양천구 가로공원로 81(신월동),서울제일요양병원,37.5356203,126.8248349,02-2691-9114
,서울특별시 양천구 신월로 151 (신월동),솔빛한방병원,37.5177056,126.8404811,02-2696-5601
서울특별시 양천구 목동 911번지 1호,서울특별시 양천구 안양천로 1071 (목동),이화여자대학교의과대학부속목동병원,37.5364909,126.8862688,02-2650-5114
서울특별시 서초구 서초동 1302-2 대지스포츠프라자,"서울특별시 서초구 서운로 220, 대지스포츠프라자 4층 (서초동)",자이비뇨의학과병원,37.50265450000001,127.0217726,02-6207-5678
,"서울특별시 관악구 남부순환로 1485, 삼남빌딩 1층, 7층, 8층 (신림동)",바를정한방병원,37.4825636,126.9154933,02-3218-1075
서울특별시 송파구 거여동 559번지 5호 삼원빌딩,"서울특별시 송파구 오금로 488, 삼원빌딩 (거여동)",송파새희망요양병원,37.493467,127.1429152,02-1544-3049
서울특별시 서대문구 홍은동 275-59 미도빌딩,"서울특별시 서대문구 모래내로 330, 미도빌딩 (홍은동)",신촌힐링요양병원,37.5796991,126.9337513,02-6237-7775
서울특별시 강서구 마곡동 808 이화의대부속서울병원,"서울특별시 강서구 공항대로 260, 이화의대부속서울병원 (마곡동)",이화여자대학교의과대학부속서울병원,37.5561883,126.8358468,1522-7000
서울특별시 강남구 역삼동 825 미진프라자,"서울특별시 강남구 강남대로 390, 미진프라자 3층 (역삼동)",립샘한방병원,37.49782320000001,127.0285616,02-1800-7544
,서울특별시 금천구 독산로 362 (독산동),실버한방병원,37.4790593,126.9041681,02-857-2001
서울특별시 종로구 연건동 28,서울특별시 종로구 대학로 101 (연건동),서울대학교병원,37.5788356,127.0010432,1588-5700
,서울특별시 강동구 양재대로 1556 (길동),강동한방병원,37.544434,127.1427308,02-455-4500
,"서울특별시 송파구 삼전로 42, 지하1~6층 (삼전동)",강남푸른숲한방병원,37.5026153,127.0870269,02-424-2340
,"서울특별시 영등포구 여의대방로53길 22 (신길동, 성애병원)",성애의료재단 성애병원,37.5119571,126.9223932,02-840-7114
서울특별시 송파구 문정동 640-3 한스빌딩,"서울특별시 송파구 정의로8길 7, 한스빌딩 1~4층 (문정동)",민트병원,37.4864522,127.1163747,02-2088-3000
,"서울특별시 관악구 신원로 35, 삼모더프라임타워 6층 (신림동)",치유본한방병원,37.4821199,126.929047,02-1644-8511
,"서울특별시 중구 다산로 78 (신당동, 송도병원)",서울송도병원,37.5511632,127.0081387,02-2231-0900
"서울특별시 송파구 문정동 634 가든파이브라이프 10층  L-10001~4, L-10006~8호","서울특별시 송파구 충민로 66, 가든파이브라이프 10층 L-10001~4,L-10006~8호 (문정동)",잠실자생한방병원,37.4775778,127.1249983,02-6907-2021
서울특별시 강남구 일원동 50번지,"서울특별시 강남구 일원로 81 (일원동, 삼성의료원)",삼성서울병원,37.4881193,127.0849885,02-3410-2114
서울특별시 송파구 가락동 57번지 B3-6층,"서울특별시 송파구 송이로 111, B3-6층 (가락동, 청석빌딩)",송파드림재활병원,37.49671670000001,127.1222057,02-430-1122
,서울특별시 강동구 천호대로 1159 (길동),서울양병원,37.5340689,127.1401371,02-480-8000
서울특별시 송파구 가락동 121번지 2호 마리아 의료재단 새병원,"서울특별시 송파구 송이로 152, 마리아 의료재단 새병원 (가락동)",의료법인마리아의료재단마리아병원,37.49321279999999,127.124404,02-2152-6555
,서울특별시 도봉구 방학로 177 (방학동),스카이요양병원,37.6620171,127.0324567,02-992-7582
,서울특별시 영등포구 당산로31길 10 (당산동3가),의료법인 인봉의료재단 영등포병원,37.5236264,126.9004142,02-2635-2809
,"서울특별시 영등포구 영등포로36길 13 (영등포동4가, 충무병원)",씨엠병원,37.518341,126.903208,02-2678-0001
서울특별시 강북구 번동 461-68 북서울요양병원,"서울특별시 강북구 한천로 1002, 북서울요양병원 (번동)",북서울요양병원,37.6380977,127.0300576,02-900-7006
서울특별시 강서구 화곡동 938번지 19호 백제빌딩,"서울특별시 강서구 곰달래로 54, 백제빌딩 1~7층 (화곡동)",강서수한방병원,37.529921,126.8388361,02-2696-8275
,"서울특별시 서대문구 수색로 102, 2~4층 (북가좌동, DMC요진아파트)",활명한방병원,37.5729116,126.9083755,02-333-7550
서울특별시 강북구 미아동 734번지 108호,"서울특별시 강북구 삼양로 204 (미아동, 효성요양병원)",효성요양병원,37.6220456,127.0205114,02-988-9456~7
,서울특별시 강동구 성안로 150 (길동),성심의료재단강동성심병원,37.5361234,127.1352442,02-2224-2114
,"서울특별시 양천구 남부순환로 331 (신월동, 메디힐병원)",메디힐병원,37.537254,126.8280387,02-2604-7551
,서울특별시 송파구 오금로 290 (가락동),서울병원,37.4956865,127.1184047,02-405-8500
,"서울특별시 은평구 서오릉로 45, 최원호병원 (녹번동)",최원호병원,37.6047179,126.9238183,02-1588-3797
서울특별시 동대문구 회기동 1-5,서울특별시 동대문구 경희대로 23 (회기동),경희대학교병원,37.5967122,127.0513948,02-958-8114
서울특별시 종로구 내자동 219 도반 빌딩,"서울특별시 종로구 새문안로5가길 33, 도반 빌딩 2~12층,14층일부 (내자동)",도반한방병원,37.5748255,126.97294,02-1588-6858
,"서울특별시 종로구 대학로 89, 대학로빌딩 지하1, 지상2~6층 (연건동)",치휴한방병원,37.579173,127.0017955,02-6213-1010
"서울특별시 종로구 신문로2가 1-158 썬타워빌딩 지하1층, 지상2,3,4,5,6,7층","서울특별시 종로구 경희궁길 26, 썬타워빌딩 지하1층, 지상2,3,4,5,6,7층 (신문로2가)",아미나요양병원,37.5722621,126.9710161,02-730-7777
서울특별시 동대문구 용두동 129번지 36호,"서울특별시 동대문구 무학로 88 (용두동, 지하2~지상8층)",왕십리휴요양병원,37.5720548,127.0310123,02-927-6501
,"서울특별시 송파구 송이로 156, 태정타워 (가락동)",강남센트럴요양병원,37.4929964,127.1245911,02-3411-2360
,"서울특별시 종로구 새문안로 9, 적십자병원 (평동)",서울적십자병원,37.5671402,126.9670566,02-2002-8000
서울특별시 도봉구 도봉동 617-21,서울특별시 도봉구 도봉로 755(도봉동),서울노보스병원,37.6721497,127.0436788,02-3492-3251
서울특별시 동작구 신대방동 686번지 1호,서울특별시 동작구 시흥대로 634 (신대방동),의료법인에이치엠피의료재단녹십초요양병원,37.4883722,126.9066839,02-848-0100
서울특별시 서초구 방배동 481번지 10호,서울특별시 서초구 남부순환로 2151 (방배동),대항병원,37.4756642,126.9877396,6388-8114
"서울특별시 성북구 종암동 3-1342 청한빌딩 4,5층","서울특별시 성북구 종암로 129, 청한빌딩 4,5층 (종암동)",한마음한방병원,37.6014396,127.0327205,02-6231-7575
,"서울특별시 영등포구 대림로 223 (대림동, 명지춘혜병원)",의료법인 춘혜의료재단 명지춘혜재활병원,37.5007036,126.8971012,02-3284-7777
,"서울특별시 영등포구 신길로 1 (대림동, 강남성심병원)",한림대학교 강남성심병원,37.4928431,126.9086305,02-829-5114
서울특별시 강서구 내발산동 668,"서울특별시 강서구 강서로 323, 4~8층 (내발산동)",비에스코아이비인후과병원,37.5546829,126.83655,02-6953-8226
,"서울특별시 송파구 송이로 76, 뉴스타트병원 (가락동)",뉴스타트병원,37.4992625,127.1194189,02-407-7700
서울특별시 송파구 문정동 17-5 인애가한방병원,"서울특별시 송파구 문정로 65, 인애가한방병원 1,2,4,5,6층 (문정동)",의료법인일맥의료재단 송파인애가한방병원,37.5052352,127.1351225,02-443-7575
,서울특별시 중랑구 신내로 156 (신내동),서울특별시서울의료원,37.6129812,127.0979689,02-2276-7000
서울특별시 서초구 서초동 1603-1 블루핀타워,"서울특별시 서초구 서초중앙로 42, 블루핀타워 지하2층,지하1층,1층,2층,3층 동 (서초동)",장덕한방병원,37.4857592,127.0160952,02-593-0052
서울특별시 도봉구 방학3동 442,서울특별시 도봉구 시루봉로 137 (방학동),경희늘푸른노인전문병원,37.663199,127.0272956,02-903-9920
서울특별시 서초구 서초동 1426-1,"서울특별시 서초구 서초중앙로 4, 기쁨병원 (서초동)",기쁨병원,37.4826527,127.0180446,02-570-1234
,서울특별시 강동구 동남로 892 (상일동),강동경희대학교의대병원,37.5511028,127.1696401,02-440-7114
서울특별시 강북구 미아동 189번지 6호 포근한노인전문병원,서울특별시 강북구 도봉로 266 (미아동),포근한병원,37.63229159999999,127.0241391,02-986-9988
,"서울특별시 중랑구 망우로 316, 이지팰리스 5~7층 503-2,504,505,601~605,701~705호 (상봉동)",한걸음요양병원,37.5964847,127.0875354,02-493-9700
서울특별시 중랑구 망우동 488-8 장스여성병원 비동,"서울특별시 중랑구 용마산로117길 49, 장스여성병원 비동 (7층 일부제외)동 (망우동)",장스여성병원,37.5996996,127.0975403,02-490-4000
서울특별시 종로구 숭인동 200번지 26호 진형빌딩,"서울특별시 종로구 종로 386, 6.7.8.9층 (숭인동)",서울숭인병원,37.5740414,127.0203492,02-737-7582
서울특별시 용산구 이촌동 301번지 165호,서울특별시 용산구 이촌로 318 (이촌동),금강아산병원(재단법인 아산사회복지재단),37.5176094,126.9819495,02-799-5000
,서울특별시 종로구 대학로 101 (연건동),서울대학교치과병원,37.5788356,127.0010432,02-2072-2655
서울특별시 종로구 평창동 158-1 글로리아타운,"서울특별시 종로구 평창문화로 75, 글로리아타운 2층일부,3,5층 (평창동)",로이병원,37.6068198,126.9692177,02-1644-7541
서울특별시 종로구 무악동 32번지 2호,서울특별시 종로구 통일로 256 (무악동),세란병원,37.575178,126.9574751,02-737-0181
서울특별시 종로구 평동 108,서울특별시 종로구 새문안로 29 (평동),강북삼성병원,37.569203,126.9674914,02-2001-2001
,"서울특별시 중구 장충단로 263, 14층 (을지로6가, 밀리오레상가건물)",더블유치과병원,37.5683219,127.0083106,-4515
서울특별시 중구 신당동 336번지 3호,"서울특별시 중구 다산로 175, 3층 (신당동, 명덕빌딩)",유치과병원,37.5592923,127.0128412,2233-3923
서울특별시 성동구 홍익동 102번지,서울특별시 성동구 마장로 207 (홍익동),서울특별시장애인치과병원,37.5658853,127.034329,02-2282-0001
서울특별시 중구 명동1가 53번지 1호 7층,"서울특별시 중구 명동길 43, 7층 (명동1가, 신한은행)",라임나무치과병원,37.5643018,126.9846643,02-754-2879
,"서울특별시 중구 퇴계로 447, 211~213호 (황학동, 황학아크로타워)",연세스위트치과병원,37.565869,127.0215764,02-733-2875
,"서울특별시 중구 다산로 258, 2,3층 (흥인동, 리마크빌)",참바로병원,37.5658043,127.0165817,02-2234-8585
서울특별시 중구 충무로1가 25번지 5호 고려대연각센터빌딩 3층 306호,"서울특별시 중구 퇴계로 97, 3층 306호 (충무로1가, 고려대연각센터빌딩)",한누리치과병원,37.56094480000001,126.9825475,753-1922
서울특별시 동대문구 제기동 892번지 64호,"서울특별시 동대문구 정릉천동로 102, 지하1층~지상4층 (제기동)",서울탑병원,37.5813671,127.0359922,02-2088-0580
서울특별시 동대문구 장안동 431번지 6호,서울특별시 동대문구 천호대로83길 44 (장안동),맑은수병원,37.5638431,127.0654709,02-2681-0119
서울특별시 중구 신당동 422번지 4호,서울특별시 중구 동호로 202 (신당동),반도정형외과병원,37.5559847,127.0101081,2252-0202
,"서울특별시 중구 통일로 92, 케이지타워 1,2,8층 (순화동)",광화문자생한방병원,37.5635558,126.9692092,02-2165-0965
"서울특별시 동대문구 장안2동 294번지 11호 ,369-3(6~9층)",서울특별시 동대문구 답십리로 261 (장안동),참튼튼병원,37.5727746,127.0693478,1588-7562
,서울특별시 용산구 대사관로 59 (한남동),순천향대학교 부속 서울병원,37.5337071,127.0043068,02-709-9114
,"서울특별시 노원구 동일로197길 11, 공삼빌딩 2,3,4층 (공릉동)",서울미르한방병원,37.6284814,127.0706904,02-949-1075
서울특별시 중랑구 망우동 207-2,서울특별시 중랑구 망우로 470 (망우동),러스크서울병원,37.6000793,127.1043363,02-3426-0100
,"서울특별시 중랑구 동일로 679 (면목동, 88병원)",팔팔병원,37.5908852,127.0796598,02-1899-8875
서울특별시 중랑구 망우본동 227번지,서울특별시 중랑구 양원역로 38 (망우동),서울특별시 북부병원,37.6043319,127.1076979,02-2036-0200
서울특별시 중랑구 상봉동 108번지 2호,서울특별시 중랑구 면목로 473 (상봉동),강북21세기병원,37.5941147,127.0857818,1577-6336
,서울특별시 성북구 북악산로1길 71 (정릉동),의료법인참예원의료재단 성북참요양병원,37.5976063,127.0053217,02-912-2114
,"서울특별시 성북구 동소문로 106, 유타 8~9층 (동선동1가)",성북미올한방병원,37.5923136,127.0182356,02-921-0088
서울특별시 성동구 성수2가3동 275번지 2호,서울특별시 성동구 동일로 93 (성수동2가),서울효사랑요양병원,37.5411605,127.063062,02-462-0114
,서울특별시 성북구 동소문로 306 (하월곡동),동서요양병원,37.6046451,127.0393912,02-942-3611
서울특별시 성북구 정릉동 16번지 486호 외2필지,서울특별시 성북구 동소문로 215 (정릉동),새마음요양병원,37.6014067,127.0214907,02-911-7115
,서울특별시 성북구 보문로 46 (보문동7가),보문효사랑요양병원,37.5806761,127.0209333,02-929-3355
,서울특별시 성북구 종암로 72 (종암동),로덴치과병원,37.5968745,127.0356401,02-941-4974
,서울특별시 성북구 동소문로47길 8 (길음동),서울척병원,37.6088387,127.0292497,02-940-2000
,서울특별시 성동구 왕십리로 222-1 (사근동),한양대학교병원,37.5623475,127.0468637,02-2290-8114
,서울특별시 성북구 동소문로46길 10 (하월곡동),성북우리아이들병원,37.6047727,127.0437748,02-912-0100
서울특별시 성북구 종암동 25번지 6호,서울특별시 성북구 종암로 31 (종암동),성북서울요양병원,37.5931177,127.0358053,02-6312-3700
,서울특별시 성북구 아리랑로 16 (동선동4가),더서울병원,37.593509,127.0167986,02-929-2114
서울특별시 성동구 용답동 235번지 8호,"서울특별시 성동구 자동차시장1길 85, 지하1,지상3~5층 (용답동, JS빌딩)",시온요양병원,37.5604691,127.0671318,02-2247-7272
서울특별시 성동구 용답동 235-3 2~7층,"서울특별시 성동구 천호대로 436, 2~7층 (용답동)",굿모닝요양병원,37.56072940000001,127.0672231,02-3394-9878
서울특별시 성동구 행당동 130번지 115호 9988병원빌딩,서울특별시 성동구 왕십리로 269 (행당동),9988병원,37.5605312,127.0356358,02-2297-9988
서울특별시 성북구 보문동4가 18번지,서울특별시 성북구 보문로 86 (보문동4가),성북웰니스요양병원,37.5818595,127.0215369,02-3672-2233
서울특별시 성북구 하월곡동 88번지 526호,서울특별시 성북구 종암로 191 (하월곡동),사회복지법인 성가소비녀회 성가복지병원,37.6070742,127.0305156,02-940-1500
서울특별시 성동구 하왕십리동 1070-3,서울특별시 성동구 왕십리로 382 (하왕십리동),재단법인베스티안재단베스티안서울병원,37.56398739999999,127.0280247,070-7609-9252
서울특별시 성동구 도선동 365번지 1호,서울특별시 성동구 무학로2길 8 (도선동),연세슬기병원,37.5642916,127.0306801,02-2281-0010
서울특별시 광진구 능동 255-2,서울특별시 광진구 천호대로 630 (능동),바른본병원,37.5505785,127.0817378,02-1577-9844
서울특별시 성동구 성수동2가 279번지 44호,서울특별시 성동구 동일로 133 (성수동2가),연세바로척병원,37.5444086,127.0648982,1522-7586
서울특별시 광진구 능동 276-2,서울특별시 광진구 천호대로 556 (능동),광진예치과병원,37.5567097,127.0797015,02-452-7272
"서울특별시 광진구 화양동 6번지 1호 3, 4층","서울특별시 광진구 능동로 103, 3.4층 (화양동)",에스(S)리더치과병원,37.5403776,127.0705256,02-466-7528
서울특별시 광진구 구의2동 80번지 25호,서울특별시 광진구 자양로 215 (구의동),제니스병원,37.5465119,127.0864452,02-3436-8888
,"서울특별시 광진구 동일로 82-1, 생생한방병원 지하1~5층 (자양동)",경희생생한방병원,37.5398919,127.063094,02-465-6575
"서울특별시 광진구 자양동 24-9 B1~2, 2~7층","서울특별시 광진구 동일로 92-1, B1~2, 2~7층 (자양동)",서울프라임병원,37.5407911,127.0636849,02-464-2700
서울특별시 광진구 능동 222번지 13호 외 222-14,서울특별시 광진구 천호대로 568 (능동),연세무척나은병원,37.5562664,127.0808064,3425-8200
서울특별시 광진구 화양동 24번지 17호,서울특별시 광진구 동일로 154 (화양동),동부참사랑요양병원,37.5458151,127.0664104,02-461-6602
"서울특별시 광진구 화양동 4번지 12호 , 4번지19호",서울특별시 광진구 능동로 120-1 (화양동),건국대학교병원,37.5449346,127.0713277,1588-1533
서울특별시 광진구 중곡동 30번지 1호,"서울특별시 광진구 용마산로 127 (중곡동, 국립정신건강센터)",국립정신건강센터,37.564971,127.0856469,02-2204-0114
서울특별시 도봉구 쌍문동 657번지 예일빌딩5층,"서울특별시 도봉구 도봉로 569, 5층 (쌍문동, 준우빌딩)",로덴성문치과병원,37.6558527,127.0385703,02-999-9100
,서울특별시 은평구 은평로 133 (응암동),본서부병원,37.6009705,126.9225885,02-3156-5000
서울특별시 광진구 구의동 252-16 웰츠타워,"서울특별시 광진구 자양로 116, 301~307호,310~312호 (구의동, 웰츠타워)",오석한방병원,37.5382263,127.0838691,02-454-7582
서울특별시 동대문구 답십리동 94번지 9호 목련빌딩 3층,"서울특별시 동대문구 전농로 102, 3층 (답십리동)",엘치과병원,37.5740425,127.057944,02-2246-7528
"서울특별시 동대문구 하정로 22(신설동 103-10,11)",서울특별시 동대문구 천호대로 20 (신설동),의료법인마리아의료재단마리아병원,37.5779054,127.0260441,02-2234-6555
"서울특별시 동대문구 용두동 118번지 20호 ,21호",서울특별시 동대문구 무학로 124 (용두동),서울특별시 동부병원,37.5753425,127.031536,02-920-9307
서울특별시 동대문구 전농동 497번지 77호 천사병원,"서울특별시 동대문구 서울시립대로 57, 천사병원 B1,1,2,3,6층 (전농동)",다일천사병원,37.5765804,127.0476409,02-2213-8004
서울특별시 동대문구 장한로 143(장안4동 306-4),서울특별시 동대문구 장한로 143 (장안동),코리아병원,37.573212,127.0714983,02-2281-9999
서울특별시 동대문구 하정로 4(신설동 117-21),서울특별시 동대문구 천호대로 2 (신설동),시카고치과병원,37.5783838,127.0271122,02-2232-7875
서울특별시 동대문구 신설동 101-5,"서울특별시 동대문구 천호대로 3, 지하1,지상1~2층 (신설동)",365매일한방병원,37.5753794,127.0243552,02-929-0365
서울특별시 동대문구 용두동 45번지 1호,서울특별시 동대문구 고산자로 421 (용두동),서울명병원,37.5773807,127.0379876,965-2800
서울특별시 동대문구 답십리동 492번지 2호 하늘병원,"서울특별시 동대문구 천호대로 317, 하늘병원 (답십리동)",하늘병원,37.5652181,127.0555774,02-2246-8750
"서울특별시 동대문구 전농동 1번지 64호 지하1,지상1,3~6층","서울특별시 동대문구 한천로 207, 지하1,지상1,3~6층 (전농동)",신우요양병원,37.5797474,127.0557043,02-2214-7582
서울특별시 동대문구 장안동 309번지 1호 원우빌딩,"서울특별시 동대문구 장한로 152, 지하1~2층, 지상3 ~10층 (장안동)",햇살요양병원,37.5740349,127.0722051,02-2244-5533
서울특별시 동대문구 용두동 740번지 1호,서울특별시 동대문구 무학로 193-1 (용두동),날개병원,37.5816147,127.0294682,02-959-9191
"서울특별시 동대문구 장안동 413번지 1호 ,413-8호",서울특별시 동대문구 한천로 4 (장안동),영동병원,37.570207,127.0700249,02-469-0019
서울특별시 동대문구 제기동 1046번지 4호,서울특별시 동대문구 왕산로 137 (제기동),서울나은병원,37.5883231,127.0369644,02-1544-6003
서울특별시 동대문구 용두동 36번지 2호 외 2필지,서울특별시 동대문구 고산자로 379 (용두동),서울에이스요양병원,37.5736984,127.0377315,02-961-4700
서울특별시 동대문구 답십리동 12번지 262호,서울특별시 동대문구 한천로 49 (답십리동),멘토스병원,37.5701894,127.0607706,02-2214-5100
서울특별시 동대문구 회기동 1번지 5호,"서울특별시 동대문구 경희대로 23 (회기동, 경희의료원)",경희대학교치과병원,37.5938755,127.0513235,02-958-8114
,서울특별시 은평구 통일로 1021 (진관동),가톨릭대학교 은평성모병원,37.6335822,126.9161092,02-1811-7755
서울특별시 동대문구 답십리동 497번지 66호,서울특별시 동대문구 천호대로 259-1 (답십리동),효림요양병원,37.5704795,127.0570001,02-962-1123
서울특별시 동대문구 경희대길 45(회기동 산1번지),서울특별시 동대문구 경희대로 23 (회기동),경희대학교한방병원,37.5967122,127.0513948,02-958-8114
,"서울특별시 은평구 통일로 636, 은평 미드스퀘어 4,5층 (녹번동)",은평포레스트한방병원,37.6035543,126.9352994,02-6951-2727
"서울특별시 동대문구 휘경2동 29번지 1호 , 산 6번지 2호외 7필지",서울특별시 동대문구 망우로 82 (휘경동),삼육서울병원,37.589321,127.064443,02-2244-0191
서울특별시 동대문구 휘경2동 20번지 산6-7,서울특별시 동대문구 망우로 82 (휘경동),삼육치과병원,37.589321,127.064443,02-3407-2875
서울특별시 동대문구 장안동 370번지 1호 외 1필지 (본관 및 신관),"서울특별시 동대문구 답십리로 266, 파워스빌딩 (장안동)",린여성병원,37.5722335,127.0698358,2244-1212
서울특별시 은평구 녹번동 154번지 19호,서울특별시 은평구 서오릉로 37 (녹번동),연세노블병원,37.6024109,126.9351358,02-384-0009
,서울특별시 은평구 통일로 873 (갈현동),의료법인 청구성심병원,37.621541,126.913578,02-350-3300
서울특별시 동대문구 장안동 464번지 3호,서울특별시 동대문구 천호대로 421 (장안동),지혜병원,37.5641552,127.0641598,02-499-9955
,"서울특별시 마포구 양화로 119, 디키즈코리아 B1~6층 (서교동)",메디람한방병원,37.5543743,126.9198164,02-333-3300
서울특별시 동대문구 청량리동 40번지 9호 서울성심병원 (40-9외 7필지),"서울특별시 동대문구 왕산로 259, 서울성심병원 (청량리동)",서울성심병원,37.5841332,127.0498423,02-966-1616
"서울특별시 동대문구 장안동 313번지 3호 지하1층,지상1~11층","서울특별시 동대문구 장한로 200 (장안동, KS빌딩)",대한민국요양병원,37.5782745,127.0725079,2213-9991
,"서울특별시 마포구 와우산로 48, 로하스타워 2층 (상수동)",한창한방병원,37.5485083,126.9232809,02-6010-5010
,서울특별시 중랑구 동일로 890 (묵동),마디세상병원,37.6099111,127.0782157,1661-0592
서울특별시 서대문구 신촌동 134번지,서울특별시 서대문구 연세로 50-1 (신촌동),연세대학교치과대학치과병원,37.5646993,126.9394972,02-2228-8622
서울특별시 중랑구 망우동 489-1 삼부빌딩,"서울특별시 중랑구 망우로 403, 삼부빌딩 5~7층 (망우동)",마인드웰병원,37.5995554,127.096928,02-433-1195
,"서울특별시 중랑구 면목로 310, 4,5,6,7층일부층 (면목동)",연세본병원,37.5796201,127.087991,02-435-5800
서울특별시 중랑구 망우동 207번지 1호,"서울특별시 중랑구 망우로 474 (망우동, 조앤조병원)",조앤조병원,37.6002274,127.1047062,02-433-3336
서울특별시 중랑구 중화동 110번지 43호,"서울특별시 중랑구 봉화산로 64 (중화동, 디엔에프병원)",디앤에프병원,37.6014387,127.0814607,02-434-2119
,"서울특별시 노원구 노원로 461, 2층 (상계동)",서울제일한방병원,37.6573368,127.0654485,02-937-0052
서울특별시 양천구 신정동 994-5,"서울특별시 양천구 목동로 189, 2,3,4층 (신정동)",바른지성한방병원,37.5252952,126.8641022,02-2602-8421
서울특별시 중랑구 면목동 179-24 화성빌딩,"서울특별시 중랑구 동일로 643, 화성빌딩 지하1, 2~8층 (면목동)",늘찬병원,37.5879789,127.0796315,02-1644-0710
,서울특별시 성북구 종암로 72 (종암동),의료법인서광의료재단 성북중앙병원,37.5968745,127.0356401,02-919-3404
서울특별시 도봉구 쌍문동 508-2 2~5층,"서울특별시 도봉구 삼양로 606, 2~5층 (쌍문동)",포근한맘요양병원,37.657061,127.013852,02-986-9977
,"서울특별시 구로구 구로동로 148, 고려대부속구로병원 (구로동)",고려대학교의과대학부속구로병원,37.4922173,126.8849478,02-2626-1114
"서울특별시 강서구 내발산동 701번지 4호 외 6필지, 701번지, 701-21외 2필지",서울특별시 강서구 강서로 295 (내발산동),미즈메디병원,37.5524944,126.8333061,02-2007-1000
서울특별시 강서구 등촌동 657번지 부민병원,"서울특별시 강서구 공항대로 389, 부민병원 (등촌동)",부민병원,37.556895,126.850927,1577-7582
서울특별시 도봉구 쌍문동 508번지 1호,"서울특별시 도봉구 삼양로 610, 지하1층층 지상1,2,3,4호 (쌍문동, 산수디앤씨)",베이직병원,37.6584258,127.0375121,02-990-2999
서울특별시 강서구 등촌1동 673번지 1호 3층,"서울특별시 강서구 공항대로 281, 3층 (등촌동)",로고스치과병원,37.5575223,126.8559611,02-2699-9908
서울특별시 강서구 화곡동 114-12 FAKER TOWER,"서울특별시 강서구 화곡로 188, FAKER TOWER 1,3~8층 (화곡동)",치유본한방병원,37.542245,126.8423917,1833-7555
서울특별시 도봉구 창5동 715번지 28호,서울특별시 도봉구 해등로 129 (창동),다나병원,37.6550369,127.0403858,02-942-8000
,"서울특별시 구로구 남부순환로 1291,  A동1,2,3,4,5,6,7층 B동 5,6,7층 (가리봉동)",남서울요양병원,37.4789996,126.8943899,02-863-8999
서울특별시 은평구 불광동 221번지 57호,서울특별시 은평구 불광로13길 15 (불광동),이우요양병원,37.6172989,126.9321255,02-6352-0700
,"서울특별시 구로구 새말로 94, 2~6층, 9층 / 새말로 110 지하1층동 3~6층 (구로동)",아름제일병원,37.505465,126.8904607,
서울특별시 구로구 고척동 76번지 189호 구로성심병원,"서울특별시 구로구 경인로 427, 구로성심병원 (고척동)",구로성심병원,37.4996208,126.866356,02-2067-1500
서울특별시 금천구 독산동 899-6 2~9층,"서울특별시 금천구 남부순환로 1400, 2~9층 (독산동)",금천수요양병원,37.4800101,126.9064926,02-838-5558
서울특별시 구로구 고척동 324 신원프라자,"서울특별시 구로구 중앙로1길 18-18, 2층 (고척동, 신원프라자)",아나파한방병원,37.49927450000001,126.8636188,02-2686-7588
,서울특별시 중랑구 사가정로49길 53 (면목동),녹색병원,37.5835428,127.0862135,02-490-2000
서울특별시 노원구 상계동 606-12 노원스퀘어,"서울특별시 노원구 노해로81길 5-6, 노원스퀘어 5-7층 (상계동)",강북예치과병원,37.6552273,127.0624913,938-2833
서울특별시 금천구 시흥동 113-14 리솜메디라이프,"서울특별시 금천구 시흥대로79길 15, 리솜메디라이프 4~7층 (시흥동)",경희리솜한방병원,37.4588882,126.8976981,02-896-0010
,"서울특별시 영등포구 영등포로 83, 한강수병원 (양평동1가)",한강수병원,37.5223465,126.890717,02-1800-7119
,"서울특별시 관악구 남현길 7, 한일프라자 4, 6층 (남현동)",더웰샘한방병원,37.4760633,126.9777095,02-3427-8275
서울특별시 관악구 신림동 10번지 715호 양지병원,"서울특별시 관악구 남부순환로 1636, 양지병원 (신림동)",의료법인서울효천의료재단 에이치플러스양지병원,37.48413,126.9325195,02-1877-8875
서울특별시 관악구 신림동 543-18 강남힐병원,"서울특별시 관악구 남부순환로 1449, 강남힐병원 (신림동)",강남힐병원,37.4815354,126.9118202,853-4600
,"서울특별시 은평구 은평로 170, 6층,7층,8층 (응암동, 상현빌딩동)",한국효요양병원,37.599557,126.9230282,02-357-0357
서울특별시 은평구 진관동 55번지,서울특별시 은평구 통일로 1021 (진관동),가톨릭대학교 은평성모병원,37.6335822,126.9161092,02-1811-7755
서울특별시 은평구 녹번동 27번지 6호,서울특별시 은평구 통일로 669 (녹번동),연세에덴요양병원,37.6061077,126.9333747,1577-5046
서울특별시 은평구 역촌동 산 31번지 1호,서울특별시 은평구 갈현로7길 49 (역촌동),서울특별시서북병원,37.607074,126.9114516,02-3156-3000
"서울특별시 은평구 신사동 8번지 5호 2층 201,202호","서울특별시 은평구 갈현로 24, 2층 201,202호 (신사동)",21C메트로한방병원,37.6002042,126.9104647,02-388-1075
,"서울특별시 은평구 통일로 726, 불광메디컬타워 1~12층 (불광동)",의료법인 성누가의료재단 성누가병원,37.6105218,126.9303279,02-1660-0075
서울특별시 은평구 대조동 187번지 51호,서울특별시 은평구 통일로 809-1 (대조동),문치과병원,37.6161193,126.9237253,355-7355
서울특별시 은평구 응암2동 232번지 3호,서울특별시 은평구 백련산로 90 (응암동),서울특별시은평병원,37.5938708,126.9237006,300-8114
서울특별시 은평구 구산동 191번지 1호,서울특별시 은평구 갈현로11길 30 (구산동),서울재활병원,37.6105584,126.9113127,02-6020-3000
서울특별시 은평구 대조동 15번지 123호,서울특별시 은평구 진흥로 191 (대조동),서울병원,37.6150894,126.9231934,357-0515
서울특별시 은평구 갈현동 462번지 52호,서울특별시 은평구 연서로 177 (갈현동),은평연세병원,37.621541,126.913578,02-388-8114
,"서울특별시 강남구 도곡로 214, 롤스웰빌딩,지하2층, 지하1층, 지상1층 일부, 지상2~7층  (도곡동)",서울본브릿지병원,37.4924678,127.0424294,02-1899-0090
서울특별시 서대문구 창천동 13-2 준성빌딩,"서울특별시 서대문구 명물길 32, 준성빌딩 2,3층 (창천동)",잎사귀치과병원,37.5580763,126.9384427,1899-9976
"서울특별시 강남구 역삼동 773번지 6호 지하1층, 2~7층","서울특별시 강남구 언주로 327, 지하1층, 2~7층 (역삼동)",서울안강병원,37.4970674,127.0449211,02-1899-3210
,"서울특별시 은평구 연서로 10, 지하2~지상9층 (역촌동)",리드힐병원,37.5997962,126.9164468,02-382-7700
서울특별시 강남구 논현동 55-3 새로운병원빌딩 지하1층일부~7층,"서울특별시 강남구 학동로 121, 새로운병원빌딩 지하1층일부~7층 (논현동)",새로운병원,37.5122805,127.0243229,1577-0212
서울특별시 강남구 도곡동 949,서울특별시 강남구 강남대로 276(도곡동),메디움강남요양병원,37.48859059999999,127.0452757,02-573-5737
서울특별시 은평구 구산동 2번지 36호 세웅그룹빌딩 3~9층,"서울특별시 은평구 서오릉로 149, 세웅그룹빌딩 3~9층 (구산동)",하나효요양병원,37.6115551,126.9161904,02-356-7007
"서울특별시 강남구 삼성동 77번지 23호 지하1,2층, 지상 1~11층","서울특별시 강남구 봉은사로 535 (삼성동, 트리니티재활병원빌딩, 지하1,2층, 지상1~11층)",트리니티병원,37.5142613,127.058658,547-4800
서울특별시 강남구 신사동 587-16 포레스트요양병원,"서울특별시 강남구 도산대로 209, 포레스트요양병원 (신사동)",포레스트요양병원,37.520478,127.0293822,02-1899-5868
서울특별시 서대문구 연희동 192번지 32호,서울특별시 서대문구 성산로 335 (연희동),강북연세요양병원,37.566131,126.9275766,02-335-2277
서울특별시 서대문구 홍제동 251번지 4호,"서울특별시 서대문구 통일로 442 (홍제동, 제이여성병원)",제이여성병원,37.5884637,126.9449078,02-2153-7777
서울특별시 서대문구 남가좌동 102번지 3호,"서울특별시 서대문구 수색로 18, 2~5층 (남가좌동, 영보웨딩부페)",가자연세병원,37.5689223,126.9165866,02-304-5660
서울특별시 서대문구 홍은동 437번지 1호,서울특별시 서대문구 통일로 544 (홍은동),효담요양병원,37.5962643,126.9395997,02-395-8880
,서울특별시 서대문구 성산로 365-14 (연희동),의료법인제민의료재단동서병원,37.5646269,126.9301576,02-337-1110
,서울특별시 서대문구 수색로 131 (북가좌동),사랑요양병원,37.5741722,126.9056422,02-304-7573
,서울특별시 서대문구 충정로 71-5(충정로2가),서울중앙요양병원,37.5653973,126.9643913,02-3147-0999
,"서울특별시 서대문구 연희로 272, 동신병원 본관동 (홍은동)",의료법인동신의료재단 동신병원,37.58115590000001,126.9365265,02-396-9161
,서울특별시 서대문구 성산로 365-14 (연희동),의료법인제민의료재단동서한방병원,37.5646269,126.9301576,02-337-1110
,서울특별시 은평구 응암로 164 (응암동),인정병원,37.5865364,126.9163516,02-309-0909
서울특별시 마포구 신수동 81번지 101호 세솟는병원,"서울특별시 마포구 백범로 26, 세솟는병원 (신수동)",세솟는정형외과병원,37.5523286,126.9370743,02-719-7373
서울특별시 마포구 신수동 66번지 1호 지2층~6층,"서울특별시 마포구 서강로 110, 지2층~6층 (신수동)",신촌연세병원,37.5524642,126.9336613,02-337-7582
,"서울특별시 마포구 독막로 32, A동 지1,123457층 (합정동)",혜당한방병원,37.5480746,126.9167911,02-335-1010
,"서울특별시 강남구 테헤란로 337 (역삼동, 4~9층)",강남초이스정형외과병원,37.5047883,127.0484604,02-539-2250
서울특별시 강남구 대치동 889-11 대치빌딩,"서울특별시 강남구 테헤란로 408, 대치빌딩 지상9층~지상17층 (대치동)",누네안과병원,37.5045198,127.0502854,02-1661-1175
서울특별시 마포구 성산동 200번지 22호 SMC 지하1층~5층,"서울특별시 마포구 월드컵북로 165, 지하1층~5층 (성산동, SMC)",에스엠씨요양병원,37.5668837,126.9099081,374-3111
"서울특별시 마포구 동교동 166번지 1호 (3, 4층)","서울특별시 마포구 양화로 178, 3층 (동교동)",네모치과병원,37.5575305,126.9251518,333-2882
서울특별시 마포구 도화동 566번지 자람빌딩 3층,"서울특별시 마포구 마포대로 78, 자람빌딩 3층 (도화동)",한그루치과병원,37.5418429,126.949723,716-2600
,"서울특별시 송파구 위례서로 248, 3층 일부, 4층 (거여동)",365다시재한방병원,37.4877357,127.1424172,02-512-0750
,"서울특별시 송파구 법원로11길 32, 지하2~1층, 지상5~11층,13층 (문정동)",대전대학교서울한방병원,37.4816698,127.1206971,02-2222-8100
"서울특별시 마포구 노고산동 57번지 1호 그랜드플라자 10층,11층","서울특별시 마포구 신촌로 94, 10층,11층 (노고산동, 그랜드플라자)",신촌다인치과병원,37.5551211,126.9359814,02-719-2275
서울특별시 마포구 마포동 33번지 1호 대농빌딩,"서울특별시 마포구 마포대로 25, 대농빌딩 2,3,5층 (마포동)",연세한강병원,37.5394235,126.9447973,02-1644-3099
,"서울특별시 양천구 공항대로 610 (목동, 정종일산부인과)",포미즈여성병원,37.5490957,126.8657684,02-2651-7500
"서울특별시 양천구 신정동 943번지 19호 B02,B01, 지상2~5층",서울특별시 양천구 중앙로 300 (신정동),목동제일여성병원,37.5230249,126.851818,02-6927-3646
,"서울특별시 송파구 송파대로 562, 2,3,8층 (신천동, 한빛프라자,삼성웰리스아파트)",미래본병원,37.51533149999999,127.0995423,02-1899-5230
서울특별시 양천구 신정동 942번지 12호,"서울특별시 양천구 오목로 121 (신정동, 양천효요양병원)",양천효요양병원,37.5242322,126.8510942,02-2696-6568
서울특별시 양천구 신정3동 1320번지 7호,서울특별시 양천구 신정이펜1로 20 (신정동),서울특별시서남병원,37.5118952,126.8331574,1566-6688
,"서울특별시 양천구 목동서로 285, 황금프라자 10층 (신정동)",목동중앙치과병원,37.5218412,126.8691571,-4419
서울특별시 양천구 신정4동 888번지 47호,서울특별시 양천구 신정중앙로 103 (신정동),이엔이치과병원,37.5265011,126.8633679,02-2691-2875
,서울특별시 강동구 천호대로 1151 (길동),고은빛여성병원,37.5341523,127.1393233,02-1577-0082
서울특별시 강동구 길동 459번지 1호,서울특별시 강동구 천호대로 1133 (길동),남기세병원,37.5346961,127.1375085,02-1577-2533
서울특별시 강동구 천호동 452-1,서울특별시 강동구 천호대로 1043 (천호동),서울미즈병원,37.5376011,127.1281052,02-470-9114
,"서울특별시 강동구 양재대로 1596, 3~6층 (명일동)",봄담한방병원,37.5480418,127.1437583,02-3013-3336
서울특별시 강서구 마곡동 799-11 파인스퀘어,"서울특별시 강서구 마곡중앙4로 22, 파인스퀘어 3,4층 (마곡동)",보금한방병원,37.5584156,126.8294265,02-6949-0337
서울특별시 강동구 성내동 387-47,"서울특별시 강동구 양재대로 1415, 지하4, 지상5층 (성내동)",허리나은병원,37.5304933,127.128992,02-472-0114
서울특별시 강서구 등촌동 700 플러스존,"서울특별시 강서구 공항대로41길 34, 플러스존 3,4층 (등촌동)",경희생생한방병원,37.5593008,126.845731,02-6954-6575
,"서울특별시 강서구 금낭화로 9, 바른세상병원 1,2,3,4,5,층 6,7호 (방화동)",강서바른세상병원,37.5660956,126.8115905,02-2603-0300
서울특별시 강서구 마곡동 800번지 5호,"서울특별시 강서구 공항대로 228, 4,5층 (마곡동)",무척바른한방병원,37.5586285,126.8327075,1833-6375
서울특별시 강서구 화곡동 1026번지 12호,"서울특별시 강서구 강서로 206, 2,3,4,5,6층 (화곡동)",서울큰나무병원,37.5445288,126.8380418,02-2695-1155
서울특별시 강서구 내발산동 678번지 7호 서울스타병원빌딩,"서울특별시 강서구 강서로 307, 서울스타병원빌딩 3,4,5,6,7,층 8,9호 (내발산동)",서울스타병원,37.55323,126.8362668,02-2604-9300
서울특별시 강서구 화곡동 114-100 세웅빌딩,"서울특별시 강서구 화곡로 186, 세웅빌딩 1~5층 (화곡동)",더와이즈치과병원,37.5421829,126.8421582,02-2608-2875
서울특별시 강서구 방화동 495번지 26호,"서울특별시 강서구 양천로 35, 1~6층 (방화동)",365강서수요양병원,37.5730096,126.8076716,02-2663-0075
서울특별시 강서구 방화동 273번지 7호,"서울특별시 강서구 방화대로 352, 1~4층 (방화동)",솔병원,37.5722817,126.8172149,02-2064-7575
서울특별시 강서구 화곡동 1065번지 22호 터보빌딩,"서울특별시 강서구 강서로 173, 터보빌딩 7,8,9층 (화곡동)",힘찬하나로한방병원,37.5419334,126.8396419,02-2066-7513
서울특별시 강서구 화곡동 1051-22,"서울특별시 강서구 강서로 179, 6~10층 (화곡동)",서울원병원,37.5423342,126.8390652,1544-5888
서울특별시 강서구 마곡동 797 에이스타워 마곡,"서울특별시 강서구 공항대로 237, 에이스타워 마곡 3,4,5,6층 (마곡동)",에스앤유서울병원,37.5747529,126.8384441,02-333-5151
,"서울특별시 강서구 강서로56길 38 (등촌동, 강서힘찬병원)",강서힘찬병원,37.5591924,126.840646,02-1899-2228
서울특별시 광진구 자양동 627번지 3호,서울특별시 광진구 자양로 85 (자양동),혜민병원,37.5351884,127.0834641,02-2049-9000
"서울특별시 도봉구 방학동 719-3 렉시온프라자 2, 3, 4층","서울특별시 도봉구 도봉로152길 26, 렉시온프라자 2, 3, 4층 (방학동)",의성한방병원,37.6691927,127.0452616,02-902-7510
서울특별시 강서구 등촌동 664번지 11호 천수빌딩,"서울특별시 강서구 화곡로61길 109, 천수빌딩 2,3,4,5층 (등촌동)",새빛요양병원,37.5582557,126.8465382,02-2658-3929
서울특별시 강서구 염창동 252번지 14호,"서울특별시 강서구 양천로 715, 지하3층~8층 (염창동)",더서밋요양병원,37.5497046,126.8755585,02-3663-6786
서울특별시 강서구 화곡동 377번지 8호 나누리강서병원,"서울특별시 강서구 가로공원로 187, 나누리강서병원 (화곡동)",강서케이병원,37.5373118,126.8366869,02-3665-9797
,서울특별시 강동구 천호대로 1165 (길동),달려라병원,37.5341106,127.1409322,02-1600-7511
,서울특별시 강동구 풍성로37길 45 (성내동),공안과병원,37.5338644,127.1260423,02-480-5000
서울특별시 강동구 둔촌동 6-2 서울요양병원,"서울특별시 강동구 진황도로61길 53, 서울요양병원 (둔촌동)",한국보훈복지의료공단 서울요양병원,37.5296969,127.1477172,02-2225-1234
서울특별시 강서구 과해동 676번지,서울특별시 강서구 하늘길 70 (과해동),우리들병원,37.5618103,126.7986587,02-2660-7500
서울특별시 강서구 방화동 572번지 11호,"서울특별시 강서구 양천로 92, 지하1, 지상1~6층 층호 (방화동, 방화정형외과)",방화병원,37.5733185,126.8139994,02-2666-7582
,서울특별시 강동구 양재대로 1580 (명일동),사랑플러스병원,37.54667999999999,127.1435799,02-1661-9991
,서울특별시 노원구 동일로 996 (공릉동),강북연세병원,37.6304722,127.0909904,02-2092-5505
서울특별시 강서구 화곡동 1031번지 12호,서울특별시 강서구 강서로 194 (화곡동),유광사여성병원,37.5436493,126.8389237,02-2608-1011
서울특별시 노원구 월계동 50번지 1호,서울특별시 노원구 화랑로 323 (월계동),더조은요양병원,37.6282394,127.0567599,02-941-7800
서울특별시 노원구 상계동 1142번지 9호,"서울특별시 노원구 동일로243길 45 (상계동, 사랑요양병원)",의료법인 행복나눔의료재단 사랑요양병원,37.678406,127.052625,02-933-1114
,서울특별시 종로구 삼청로10길 13 (삼청동),서울지구병원,37.5880573,126.9828623,02-397-3915
서울특별시 강서구 화곡동 1076번지 1호 지상5층,"서울특별시 강서구 화곡로 176-4, 5층 (화곡동)",서울바로나치과병원,37.5416444,126.841159,02-2693-2827
서울특별시 강서구 등촌동 512번지 18호,"서울특별시 강서구 등촌로 181 (등촌동, 실로암안과병원)",실로암안과병원,37.5460231,126.8622072,02-2650-0700
서울특별시 강서구 염창동 263번지 3호,서울특별시 강서구 양천로 712 (염창동),핑크힐병원,37.549468,126.8748748,02-2658-5114
서울특별시 노원구 중계동 160-1 기업은행,"서울특별시 노원구 덕릉로 690, 기업은행 2,3,4,5층 (중계동)",노원솔요양병원,37.6510125,127.0799977,932-0036
서울특별시 노원구 상계동 387번지 226호,서울특별시 노원구 상계로26길 7 (상계동),희망요양병원,37.6582268,127.0708846,936-9966
서울특별시 노원구 상계동 711번지 12호 9층~11층,"서울특별시 노원구 동일로 1419, 9층~11층 (상계동)",선의요양병원,37.6553063,127.0598512,02-3391-3992~3
서울특별시 노원구 상계동 292번지 1호 와우쇼핑몰 5층,"서울특별시 노원구 노해로 507, 5층 (상계동, 와우쇼핑몰)",다인치과병원,37.6553388,127.0637614,02-952-2275
서울특별시 노원구 공릉동 680-10,"서울특별시 노원구 동일로 989, 1~9층 (공릉동)",방병원,37.6184173,127.075007,02-1577-4447
서울특별시 강서구 화곡동 1052번지 6호,서울특별시 강서구 강서로 182 (화곡동),참요양병원,37.5428142,126.8397134,02-2605-2114
서울특별시 강서구 화곡동 349번지 3호,서울특별시 강서구 강서로17길 24 (화곡동),강서필병원,37.5330015,126.8443356,02-2608-8855
서울특별시 강서구 등촌동 669번지 1호,"서울특별시 강서구 공항대로 315 (등촌동, 서울시니어강서타워)",강서송도병원,37.5584666,126.8427925,02-2659-0600
서울특별시 강서구 내발산동 701번지 15호 덕산빌딩,"서울특별시 강서구 강서로47가길 33, 덕산빌딩 2,3,4,5,6층 (내발산동)",서울대효병원,37.5509824,126.8357663,02-2663-1114
서울특별시 강서구 마곡동 759-2,"서울특별시 강서구 마곡중앙5로 22, 지하1,2지상4,1층 0,11,12호 (마곡동)",웰튼병원,37.5672509,126.8253028,02-2690-2000
서울특별시 강동구 천호동 357 서울현대요양병원,"서울특별시 강동구 올림픽로 684, 서울현대요양병원 (천호동)",서울현대요양병원,37.542267,127.1253066,02-484-7588
,"서울특별시 구로구 중앙로 64, 고척프라자 가동 4,5층/나동3,4층 (고척동)",오케이요양병원,37.5038001,126.8628007,02-2616-7755
서울특별시 강북구 미아동 304-7,서울특별시 강북구 도봉로 181(미아동),경희황소한방병원,37.6249464,127.0263162,02-985-7582
"서울특별시 도봉구 방학동 676-21 SYO빌딩 1층, 4층","서울특별시 도봉구 방학로3길 6, SYO빌딩 1, 4층 (방학동)",희성한방병원,37.6626293,127.040585,02-3491-7775
"서울특별시 강동구 천호동 51-7 남해빌딩 2층일부, 3~5층","서울특별시 강동구 양재대로 1517, 남해빌딩 2층일부, 3~5층 (천호동)",참잘함한방병원,37.5412931,127.1408263,1660-2500
서울특별시 구로구 오류동 55번지 30호 더세인트빌딩,"서울특별시 구로구 경인로 218, 더세인트빌딩 B1.B중,3~15층 (오류동)",더세인트요양병원,37.4962484,126.8451559,02-333-1119
,"서울특별시 구로구 새말로 60, 제중요양병원 지하2,동 1~9층 (구로동)",재단법인 제중의료복지재단 제중요양병원,37.5033217,126.8866996,02-837-7111
서울특별시 강동구 성내동 548번지 5호 채원자연통합병원빌딩,"서울특별시 강동구 성내로 66, 채원자연통합병원빌딩 (성내동)",더셀채원병원,37.5276451,127.1271239,02-2635-9933
서울특별시 구로구 구로동 44번지 7호 고려 수 타워,"서울특별시 구로구 공원로6가길 4, 고려 수 타워 (구로동)",의료법인 서울효천의료재단 에이치플러스자립병원,37.5018885,126.8915897,02-1577-2588
"서울특별시 관악구 봉천동 937번지 15호 2,3,4,5,6층","서울특별시 관악구 은천로 51 (봉천동, 2,3,4,5,6층)",서울퍼스트병원,37.4862469,126.9410887,02-882-6900
서울특별시 마포구 아현동 346-5,서울특별시 마포구 신촌로 240 (아현동),위비앙병원,37.5569236,126.9524424,02-6207-8811
서울특별시 구로구 오류동 44번지 10호 시티월드,"서울특별시 구로구 경인로 176, 501,502,601호 (오류동, 시티월드)",일로한방병원,37.4943138,126.841017,02-6741-1075
서울특별시 구로구 구로동 586번지 5호 삼전솔하임,"서울특별시 구로구 새말로 15, 2~9층 (구로동, 삼전솔하임)",의료법인 우리아이들 의료재단 우리아이들병원,37.5021971,126.8824818,02-858-0100
,"서울특별시 영등포구 도신로 41 (대림동, 코스모메디칼)",새롬한방병원,37.5051816,126.8974098,02-833-1275
,"서울특별시 구로구 구로동로 147, MEDI FLOWER 147 (구로동)",예스병원,37.4917461,126.8833497,-3257
,"서울특별시 구로구 중앙로 91, 본소클리닉스 (고척동)",목동현대요양병원,37.5055576,126.8604289,02-3666-1122
,서울특별시 구로구 중앙로 100 (고척동),연세사랑모아여성병원,37.5063403,126.8606225,02-2636-1122
서울특별시 강남구 역삼동 650-9 강남차병원,"서울특별시 강남구 논현로 566, 강남차병원(역삼동650-9, 606-4, 605외2필지(지하7층~지하1층, 지상2층~7층)) (역삼동)",차의과학대학교 강남차병원,37.506905,127.0344844,02-3468-3000
,"서울특별시 구로구 서해안로 2296, 삼성미래여성병원 (오류동)",삼성미래여성병원,37.4912318,126.8404253,02-2682-2100
서울특별시 구로구 개봉동 353-2 구로다나병원빌딩,"서울특별시 구로구 개봉로 126, 구로다나병원빌딩 (개봉동)",의료법인다나의료재단구로다나병원,37.4968022,126.8568913,02-2613-8001
서울특별시 강북구 미아동 67번지 1호,서울특별시 강북구 도봉로 74 (미아동),햇빛병원,37.6157301,127.0302217,02-983-7771
서울특별시 구로구 가리봉동 137번지 8호 정성요양병원,"서울특별시 구로구 남부순환로 1287, 정성요양병원 2.3.5층 남부순환로 107길 24동 (가리봉동)",의료법인 어울림의료재단 정성요양병원,37.4789329,126.8938691,02-863-8636
서울특별시 도봉구 쌍문동 388-1 한일병원,"서울특별시 도봉구 우이천로 308, 한일병원 (쌍문동)",의료법인한전의료재단 한일병원,37.6458568,127.0285789,02-901-3114
,서울특별시 구로구 새말로 110 (구로동),마루치과병원,37.5062335,126.8920259,02-864-2875
서울특별시 강북구 번동 418번지 1호,"서울특별시 강북구 도봉로 358 (번동, 코스타타워)",경희치과병원,37.6391935,127.027296,02-996-2828
,"서울특별시 강북구 삼각산로 58 (수유동, 국립재활원)",국립재활원,37.6391706,127.0106175,02-901-1700
,서울특별시 강북구 덕릉로 73 (수유동),신일병원,37.6347879,127.0218307,02-903-5121
,서울특별시 강동구 진황도로61길 53 (둔촌동),한국보훈복지의료공단 중앙보훈병원,37.5296969,127.1477172,02-2225-1111
서울특별시 강북구 수유동 45번지 7호,"서울특별시 강북구 도봉로 301 (수유동, 대한병원)",의료법인성화의료재단  대한병원,37.6352594,127.0228979,02-903-3232
서울특별시 금천구 독산4동 1012번지 18호,서울특별시 금천구 시흥대로114길 5 (독산동),아카시아병원,37.4681059,126.8985752,02-858-0067
"서울특별시 금천구 시흥동 1031번지 엠타워 7,8,9,14,지하2층","서울특별시 금천구 시흥대로73길 67, 엠타워 7,8,9,14,지하2층 (시흥동)",파라솔요양병원,37.4560156,126.8958859,02-6951-1245
서울특별시 금천구 독산동 331번지 39호,서울특별시 금천구 범안로 1191 (독산동),성신고려요양병원,37.4667245,126.8940765,805-6797
서울특별시 금천구 독산동 288번지 1호,"서울특별시 금천구 시흥대로 421 (독산동, 건국빌딩)",서울바른세상병원,37.4710728,126.8977578,02-2111-9700
서울특별시 금천구 시흥1동 890번지 4호 대의빌딩 3층,"서울특별시 금천구 시흥대로 202, 3,4층 (시흥동, 대의빌딩)",녹십자요양병원,37.45202949999999,126.9019858,1544-2708
"서울특별시 금천구 시흥동 883번지 5호 서평빌딩 5,6,7층","서울특별시 금천구 시흥대로 230, 서평빌딩 5,6,7층 (시흥동)",서울대효병원,37.4544206,126.9012396,02-896-2114
,서울특별시 금천구 남부순환로 1398 (독산동),구로한방병원,37.4799593,126.9061177,02-852-1800
서울특별시 금천구 시흥동 882번지 31호,서울특별시 금천구 시흥대로 244 (시흥동),희명병원,37.4557233,126.9006229,02-804-0002
서울특별시 구로구 개봉동 43번지 1호,"서울특별시 구로구 고척로21나길 88-41 (개봉동, 미소들병원)",의료법인 미소들노인전문병원,37.5029367,126.8411549,02-3666-1114
서울특별시 금천구 시흥동 1031번지,"서울특별시 금천구 시흥대로73길 67, 4,6층 (시흥동)",금천한방병원,37.4560156,126.8958859,02-6359-7554
서울특별시 금천구 독산동 150번지 7호 새움병원,"서울특별시 금천구 시흥대로139길 8, 새움병원 (독산동)",새움병원,37.4729531,126.8975928,02-1577-7015
서울특별시 영등포구 영등포동4가 156번지,서울특별시 영등포구 영신로 136 (영등포동4가),건양의료재단 김안과병원,37.51939369999999,126.9035441,1577-2639
서울특별시 영등포구 대림동 978번지 13호,"서울특별시 영등포구 시흥대로 657 (대림동, 대림성모병원)",대림성모병원,37.4906357,126.9071846,02-829-9000
,"서울특별시 영등포구 영등포로 358, 대윤메디컬센터 지하1층, 2-5층 (신길동)",대윤한방병원,37.514434,126.9179204,02-831-1075
서울특별시 영등포구 영등포동7가 77번지 5호,서울특별시 영등포구 영중로 100 (영등포동7가),신화요양병원,37.5242915,126.9071195,02-2632-8114
,서울특별시 영등포구 영중로 59 (영등포동6가),새길병원,37.5215941,126.9032142,02-1522-0075
서울특별시 영등포구 영등포동4가 425-2 서울영등포동4가우체국,"서울특별시 영등포구 경인로 841, 서울영등포동4가우체국 (영등포동4가)",신세계서울병원,37.51646849999999,126.9061909,1544-1180
,"서울특별시 영등포구 도림로 156, 명지성모병원 (대림동)",명지성모병원,37.4939034,126.8992293,02-1899-1475
,"서울특별시 영등포구 도림로 144, 88월드타워 6, 7층 (대림동)",영등포봄한방병원,37.4933336,126.8981018,02-832-2080
서울특별시 도봉구 도봉동 620-23 화성빌딩,"서울특별시 도봉구 시루봉로 310, 화성빌딩 (도봉동)",팔팔요양병원,37.6622445,127.0295401,02-3492-0888
,"서울특별시 영등포구 영중로 122 (영등포동8가, 일이빌딩)",마리아성모요양병원,37.5283544,126.9053409,02-2069-0000
,"서울특별시 영등포구 63로 10, 여의도성모병원 (여의도동)",가톨릭대학교 여의도성모병원,37.5182841,126.9367077,-9236
,"서울특별시 영등포구 버드나루로7길 12 (영등포동7가, 한강성심병원)",한림대학교 한강성심병원,37.523134,126.9096815,02-2639-5114
,"서울특별시 영등포구 가마산로 381 (대림동, 한세빌딩)",대림요양병원,37.5026502,126.8997613,02-836-7575
,"서울특별시 영등포구 양평로 99, 지하2, 6~9층 (양평동4가, 대명빌딩)",대명요양병원,37.5363174,126.8961515,02-2638-5900
서울특별시 영등포구 신길동 65번지 33호,"서울특별시 영등포구 영등포로 386 (신길동, 동인빌딩)",어울림병원,37.5132903,126.9209488,02-1899-1177
서울특별시 영등포구 문래동6가 2-1,"서울특별시 영등포구 선유로 51, 파인그라드빌딩 b1~8층 (문래동6가)",서울삼성요양병원,37.5198918,126.8846804,02-6951-1192
서울특별시 영등포구 문래동2가 39번지 10호,서울특별시 영등포구 경인로77길 6 (문래동2가),로하스참사랑요양병원,37.5129107,126.8951669,02-2634-7500
서울특별시 영등포구 신길동 861번지 일이빌딩,"서울특별시 영등포구 여의대방로 203 (신길동, 일이빌딩)",연세베스트요양병원,37.5051855,126.9219665,02-6959-9600
,서울특별시 영등포구 경인로 767 (문래동3가),서울센트럴요양병원,37.5172698,126.8957152,02-6959-4114
,서울특별시 영등포구 신길로 173 (신길동),재단법인한국산업보건환경연구소부설 해상병원,37.5076056,126.910675,02-844-6119
서울특별시 동작구 사당동 1042번지 12호 3층,"서울특별시 동작구 동작대로 13, 3층 (사당동)",따뜻한치과병원,37.47778350000001,126.9811885,02-523-2835
서울특별시 동작구 사당1동 1008번지 17호 삼인빌딩,서울특별시 동작구 동작대로 67 (사당동),더본병원,37.482544,126.981461,02-587-2299
서울특별시 동작구 사당동 138번지 3호 사당동 주상복합,"서울특별시 동작구 동작대로27다길 26, 2층 (사당동, 사당동 주상복합)",내이처럼치과병원,37.4863519,126.9802325,02-525-4275
서울특별시 동작구 상도1동 614번지 1호,서울특별시 동작구 양녕로 283 (상도1동),정동병원,37.5049528,126.9494449,02-810-7900
서울특별시 동작구 노량진동 311번지 8호 외 4필지,서울특별시 동작구 장승배기로 108 (노량진동),청화병원,37.507145,126.9401731,02-815-3788
서울특별시 동작구 흑석동 224번지 1호,서울특별시 동작구 흑석로 102 (흑석동),중앙대학교병원,37.5070482,126.9608627,1800-1114
서울특별시 동작구 신대방동 425번지,서울특별시 동작구 보라매로5길 20 (신대방동),서울특별시보라매병원,37.4937715,126.9242962,02-870-2114
서울특별시 동작구 상도동 255번지 4호,"서울특별시 동작구 성대로 43 (상도동, 우리빌딩)",연세제일요양병원,37.4989979,126.9336714,02-3445-7575
서울특별시 관악구 신림동 86번지 3호,"서울특별시 관악구 신림로 318, 4,5층 (신림동, 청암두산위브)",척편한병원,37.482603,126.9303857,02)6676-6000
서울특별시 관악구 봉천동 875번지 8호,"서울특별시 관악구 남부순환로 1796, -1,2~5층 (봉천동, 삼호빌딩)",강남초이스병원,37.4812894,126.9496068,02-875-2200
"서울특별시 동작구 사당동 147번지 29호 3층 및 2,4층 일부","서울특별시 동작구 사당로 300, 2?4층일부및3  층 (사당동, 이수자이)",연세바른병원,37.4844319,126.9804651,1544-8235
,"서울특별시 관악구 남부순환로 1860, -1,1,3,4,5층 (봉천동,  )",사랑의병원,37.47964930000001,126.9562309,02-880-0114
서울특별시 관악구 봉천동 884번지 44호,서울특별시 관악구 남부순환로 1785 (봉천동),미래드림여성병원,37.4820311,126.9486448,886-5551
서울특별시 관악구 신림동 527-13 삼남빌딩,"서울특별시 관악구 남부순환로 1485, 삼남빌딩 2~6층 (신림동)",심정병원,37.4825636,126.9154933,1588-3330
서울특별시 관악구 봉천동 869-12 대연빌딩,"서울특별시 관악구 남부순환로 1814, 대연빌딩 1,2,6층 (봉천동)",미올한방병원,37.48112649999999,126.9515779,02-553-7000
,"서울특별시 관악구 관악로 1, 지1~3층 (신림동)",관악서울대학교치과병원,37.4533582,126.9571625,-12861
서울특별시 관악구 봉천동 869번지 12호 대연빌딩,"서울특별시 관악구 남부순환로 1814, 대연빌딩 3,4,8,9층 (봉천동)",연세건우병원,37.48112649999999,126.9515779,1644-4630
"서울특별시 동작구 신대방동 358번지 3호 1,2,3층","서울특별시 동작구 여의대방로22길 98, 1,2,3층 (신대방동)",기분좋은한방병원,37.4977304,126.9253985,815-1085~6
서울특별시 관악구 신림동 726번지 5호,서울특별시 관악구 난곡로 215 (신림동),조인트힐병원,37.4737308,126.9175471,02-1899-7272
,서울특별시 관악구 관악로 242 (봉천동),강남고려병원,37.4855464,126.9567668,1661-8267
서울특별시 관악구 신림동 1638-1 삼모 더 프라임 타워,"서울특별시 관악구 신원로 35, 삼모 더 프라임 타워 3,7층 (신림동)",바른사랑병원,37.4821199,126.929047,02-878-8875
,서울특별시 관악구 남부순환로 1704 (봉천동),강남효요양병원,37.4830136,126.9393538,02-885-8080
,"서울특별시 서초구 양재대로 54, 지1,2층, 2~9층 (우면동, 서초참병원)",의료법인 참예원의료재단 서초참요양병원,37.4597625,127.0253803,02-6081-2114
,서울특별시 서초구 서초중앙로 47 (서초동),세바른병원,37.4859546,127.0153473,1588-3094
"서울특별시 서초구 반포동 20번지 45호 반포자이프라자 403, 404호","서울특별시 서초구 잠원로 24, 403,404호 (반포동, 반포자이프라자)",서울귀한이치과병원,37.5070816,127.0098858,02-523-2875
서울특별시 서초구 반포4동 44번지 3호,서울특별시 서초구 서초중앙로 197 (반포동),강남요양병원,37.499388,127.0120802,02-832-0151
"서울특별시 서초구 반포동 736번지 9호 지하4층~9층/반포동 735-26 외1(지1층,2~4층)","서울특별시 서초구 강남대로 505 (반포동, 고도일 병원)",고도일병원,37.5069637,127.0226847,1577-8907
서울특별시 서초구 서초동 1586-4,"서울특별시 서초구 효령로 261-1, 4,5,6,7층 (서초동)",서울탑치과병원,37.4845839,127.0126938,02-588-2833
,서울특별시 서초구 반포대로9길 42 (서초동),의료법인 부원의료재단 서초요양병원,37.4831263,127.0093525,-8796
서울특별시 서초구 방배동 765번지 28호 1~3층,"서울특별시 서초구 동작대로 196, 1~3층 (방배동)",이건목원리한방병원,37.4941021,126.9831912,02-537-1700
서울특별시 서초구 서초동 1338-21 코리아비지니스센타,"서울특별시 서초구 강남대로 309, 코리아비지니스센타 2층 (서초동)",광덕안정한방병원,37.4905906,127.0304516,02-2088-2975
서울특별시 서초구 방배동 446번지 3호 지하1층~3층,서울특별시 서초구 방배천로2길 22 (방배동),서초프라임요양병원,37.4767277,126.983906,02-588-7575
서울특별시 서초구 서초동 1602번지 8호,서울특별시 서초구 서초중앙로 39 (서초동),서울21세기병원,37.4852925,127.0157397,02-3477-0880
서울특별시 강남구 논현동 59 강남을지병원,"서울특별시 강남구 도산대로 202, 강남을지병원 B2~9층 (논현동)",강남을지대학교병원,37.5193936,127.0285771,02-3438-1022
서울특별시 서초구 서초동 1338-21 코리아비지니스센타,"서울특별시 서초구 강남대로 309, 코리아비지니스센타 3층 (서초동)",유디치과병원,37.4905906,127.0304516,02-2182-3300
"서울특별시 강남구 청담동 71번지 3호 B1~6층, 7층일부,8층","서울특별시 강남구 영동대로 713, B1~6층, 7층일부,8층 (청담동)",튼튼병원,37.5214129,127.0557153,02-1588-7562
서울특별시 강남구 신사동 635,"서울특별시 강남구 언주로 858, 1관, 2관동 (신사동)",노블케어요양병원,37.5269398,127.0339826,02-515-0007
"서울특별시 강남구 삼성1동 158번지 12호 서영빌딩 14층, 15층일부","서울특별시 강남구 테헤란로87길 13 (삼성동, 서영빌딩 14층,15층일부)",아림치과병원,37.5086379,127.0586148,515-5975
서울특별시 강남구 논현동 5-6 아이디병원,"서울특별시 강남구 도산대로 142, 아이디병원 B1층,1,2,3층 (논현동)",아이디병원,37.5176848,127.0242053,02-547-0050
,"서울특별시 강남구 압구정로30길 45, 2~4층 (신사동)",두발로병원,37.5243422,127.0294113,02-1833-2280
,"서울특별시 강남구 논현로105길 48, 1,2층 (역삼동)",라이브치과병원,37.5055954,127.0302651,02-508-2279
,"서울특별시 강남구 헌릉로569길 21-40, 지하3~4층, 지하2층일부, 지하1층일부, 지상1층일부, 지상2~8층 (세곡동)",네이처요양병원,37.466409,127.0997399,02-575-5114
서울특별시 강남구 논현동 200-7 urbanhive,"서울특별시 강남구 강남대로 476, urbanhive (논현동)",전체플란트치과병원,37.5049014,127.0247767,02-3446-2755
서울특별시 강남구 개포동 1230번지 12호,서울특별시 강남구 논현로16길 15 (개포동),소우주한방병원,37.47664779999999,127.0475046,02-523-1075
"서울특별시 강남구 대치동 910번지 1호 2층,3층,5층,6층","서울특별시 강남구 역삼로 430 (대치동, 2층,3층,5층,6층)",재단법인위담 위담한방병원,37.5013686,127.0541166,556-1133
서울특별시 강남구 논현동 175-10 유현빌딩,"서울특별시 강남구 논현로 627, 유현빌딩 지하2,1~9,12층 (논현동)",비에비스나무병원,37.50973460000001,127.0322053,02-519-8800
서울특별시 강남구 신사동 638-1 윤호병원,"서울특별시 강남구 압구정로 304, 윤호병원 (지하1층,지하2층,1층~4층,7층)  (신사동)",윤호병원,37.5288868,127.0343893,02-512-0500
서울특별시 강남구 청담동 2-6 3~8층,"서울특별시 강남구 도산대로 410, 3~8층 (청담동)",에스플란트치과병원,37.5228776,127.0405018,02-512-0700
서울특별시 강남구 신사동 623,"서울특별시 강남구 언주로165길 5, 3~4층 (신사동)",서울치과병원,37.5255109,127.032136,545-7775
서울특별시 강남구 삼성동 159 도심공항타워 3층,"서울특별시 강남구 테헤란로87길 36, 도심공항타워 3층 (삼성동)",건강한세상앞선치과병원,37.51025560000001,127.058472,02-555-7528
서울특별시 강남구 신사동 665-1,"서울특별시 강남구 선릉로 823, 3층 (신사동)",수치과병원,37.5256089,127.0392909,512-7528
서울특별시 강남구 신사동 638-8 구정빌딩,"서울특별시 강남구 언주로174길 15, 구정빌딩 (신사동)",토마스병원,37.5284854,127.0352244,1577-5075
서울특별시 강남구 신사동 665-1,"서울특별시 강남구 선릉로 823, 3층 (신사동)",수플란트치과병원,37.5256089,127.0392909,514-2275
,"서울특별시 강남구 언주로 871, 호산병원 (신사동)",호산여성병원,37.5283983,127.0332539,02-546-3493
서울특별시 강남구 도곡동 942-3 제이에스빌딩,"서울특별시 강남구 도곡로 122, 제이에스빌딩 (도곡동)",강남제이에스병원,37.48859059999999,127.0452757,02-533-3600
서울특별시 강남구 삼성동 170 대윤빌딩,"서울특별시 강남구 영동대로96길 34, 대윤빌딩 1층 (삼성동)",이솝한방병원,37.5112294,127.0652939,02-3444-3588
서울특별시 강남구 삼성1동 161번지,서울특별시 강남구 봉은사로 612 (삼성동),(의)가산의료재단 광동병원,37.5142598,127.0621315,2222-4888
"서울특별시 강남구 대치동 995번지 27호 지하1~2층,2~7층","서울특별시 강남구 영동대로86길 9 (대치동, 지하1~2층,2~7층)",광혜병원,37.5080758,127.0648087,02-538-7111
,"서울특별시 강남구 남부순환로 2609, 하늘빌딩, 7~12층 (도곡동) (도곡동)",강남유나이티드병원,37.4849347,127.0351052,02-1644-0075
서울특별시 강남구 논현동 37-18 메드렉스병원,"서울특별시 강남구 논현로 705, 메드렉스병원 (논현동)",메드렉스병원,37.5149727,127.0300131,02-6011-6000
"서울특별시 강남구 대치동 960번지 5호 티아빌딩(지하2층일부, 2~7층)","서울특별시 강남구 삼성로 402, 지하2층일부, 2~7층 (대치동)",강남위담한방병원,37.5033843,127.0588842,02-6204-1800
,"서울특별시 강남구 영동대로 225, 경희한방병원 1층일부,2,3,8층 (대치동)",재단법인대한스포츠의학재단강남나무병원,37.4992777,127.0676736,02-508-5995
,"서울특별시 강남구 봉은사로 171 (논현동, 지하1층일부,1-5층,6층일부)",김정수여러분병원,37.5072013,127.0325859,02-517-0770
,"서울특별시 강남구 남부순환로 2941, 대치탑프라자 2층 (대치동)",연치과병원,37.49422680000001,127.0617852,-7824
"서울특별시 강남구 청담동 131-17 경일빌딩 1~12층, 14층, 지하1~2층, 지하4~5층","서울특별시 강남구 영동대로 726, 경일빌딩1~12층, 14층, 지하1~2층, 지하4~5층 (청담동)",제일정형외과병원,37.5227974,127.0561765,02-501-6868
서울특별시 강남구 논현동 90-7 디와이빌딩,"서울특별시 강남구 학동로 233, 디와이빌딩 3층일부,4~6층 (논현동)",강남와이케이병원,37.5155265,127.0346714,02-6967-8200
서울특별시 강남구 역삼동 825 미진프라자 21층,"서울특별시 강남구 강남대로 390, 미진프라자 21층 (역삼동)",서울페이스21치과병원,37.49782320000001,127.0285616,02-556-2021
서울특별시 강남구 세곡동 521번지,"서울특별시 강남구 헌릉로590길 60 (세곡동, 강남구립 행복요양병원)",의료법인참예원의료재단강남구립행복요양병원,37.4614899,127.1027479,02-6053-2114
서울특별시 강남구 도곡동 910번지 27호 베드로병원,"서울특별시 강남구 남부순환로 2649, 베드로병원 (도곡동)",강남베드로병원,37.4856105,127.0395828,1544-7522
,"서울특별시 강남구 학동로 234, 담소유빌딩 (논현동)",담소유병원,37.5148215,127.034601,02-542-2222
서울특별시 강남구 청담동 47-4 우리들병원,"서울특별시 강남구 학동로 445, 우리들병원 (청담동)",우리들병원,37.5189949,127.0495678,02-513-8000
,"서울특별시 강남구 논현로168길 35, 목산빌딩, 지하2층, 3~5층 (신사동)",미병원,37.5234814,127.0312103,02-541-7222
서울특별시 강남구 삼성동 90번지 14호 GNG병원빌딩 2층~10층,"서울특별시 강남구 영동대로 626, 2~10층 (삼성동, GNG병원빌딩)",지앤지병원,37.5162264,127.0596496,1522-2030
,"서울특별시 강남구 영동대로 713, 9~14층 (청담동)",청담힐요양병원,37.5214129,127.0557153,02-542-7582
,"서울특별시 강남구 삼성로147길 46 (청담동, 청담병원 지하1층, 1층일부, 2층~6층)",청담병원,37.5206707,127.0456393,02-2104-2000
서울특별시 강남구 논현동 62-9,"서울특별시 강남구 도산대로 238, 1~14층 (논현동)",석플란트치과병원,37.5209378,127.0332132,555-0001
서울특별시 강남구 논현동 98-2,"서울특별시 강남구 언주로 728, 2~5,7~10층 (논현동)",미니쉬치과병원,37.5198559,127.0348859,1899-2854
,"서울특별시 강남구 도곡로 216, 치휴한방병원 (도곡동)",치휴한방병원,37.4927272,127.0426636,02-6242-1010
서울특별시 송파구 가락동 2-5 재정빌딩,"서울특별시 송파구 오금로 296, 재정빌딩 지하1층~지상5층 (가락동)",염창환병원,37.5035652,127.1252521,02-514-1249
,"서울특별시 송파구 정의로8길 4, KDG70타워 2,3,4층 (문정동)",새숨병원,37.4864522,127.1163747,02-449-7588
서울특별시 송파구 오금동 24-2 데코빌딩,"서울특별시 송파구 위례성대로22길 27, 데코빌딩 지하3층~4층층 (오금동)",오쿨리한방병원,37.5077813,127.130377,1899-5989
서울특별시 송파구 방이동 160,"서울특별시 송파구 가락로 278, 지하1층~지상6층 (방이동)",다나움요양병원,37.5124501,127.1198681,02-412-7272
"서울특별시 송파구 거여동 604 지하1층, 5~12층","서울특별시 송파구 위례서로 248, 지하1층, 5~12층 (거여동)",서울세계로병원,37.4866126,127.1422563,02-1670-9111
,서울특별시 송파구 중대로 122 (가락동),혜민안과병원,37.4938195,127.1219426,02-3012-1800
,"서울특별시 송파구 오금로 513, 위례빌딩 (거여동)",송파미소병원,37.4932282,127.1458801,02-1661-9299
,서울특별시 송파구 올림픽로 76 (잠실동),선수촌병원,37.5115663,127.0790214,02-1661-3379
"서울특별시 송파구 송파동 135번지 3호 4,14,15","서울특별시 송파구 백제고분로 436 (송파동, 서재곤링커병원)",서재곤링커병원,37.509456,127.1120394,02-2284-2001
서울특별시 송파구 마천동 26번지 11호 보은빌딩,"서울특별시 송파구 마천로 227, 보은빌딩 (마천동)",더사랑요양병원,37.5004903,127.1432053,02-6959-5522
서울특별시 강동구 상일동 501번지,"서울특별시 강동구 상일로10길 36, 2층 202,203호 (상일동, 세종텔레콤지식산업센터)",연세미래엔미소치과병원,37.5507517,127.174098,02-441-2275
,서울특별시 강동구 천호대로 1044 (성내동),리더스병원,37.5304933,127.128992,02-333-3080
서울특별시 강동구 성내동 199번지 5호,서울특별시 강동구 천호대로170길 19 (성내동),조은마디병원,37.5358991,127.1294535,02-487-1121
서울특별시 강동구 고덕동 297-1 원케어메디컬타운,"서울특별시 강동구 고덕로 295-60, 원케어메디컬타운 (고덕동)",서울숲요양병원,37.5583746,127.1597018,02-2045-9000
서울특별시 강동구 천호동 315번지 2호,서울특별시 강동구 올림픽로 734 (천호동),강동연세병원,37.546783,127.1266284,02-1899-0102
서울특별시 영등포구 신길동 505번지 2층~7층,"서울특별시 영등포구 여의대방로 145, 2~7층 (신길동, 세인트빌딩)",서울바른병원,37.5001596,126.919916,02-2098-8000
,"서울특별시 마포구 성산로4길 33, 마포요양병원 지하1~5층 (성산동)",마포요양병원,37.5637742,126.9084801,02-337-8111
"서울특별시 양천구 목1동 404번지 156호 대경프라자 ( 3층, 5층, 6층)","서울특별시 양천구 신목로 102, 3,5,6층 (목동, 대경프라자)",목동자생한방병원,37.5235882,126.8758373,02-3219-0920
,"서울특별시 노원구 노해로 488, 근호빌딩 5층 502호 (상계동)",샤인치과교정과 치과병원,37.6543208,127.0621574,02-930-2841
,"서울특별시 노원구 노원로 461, 대감프라자빌딩 3,4,5,6층 (상계동)",그레이스힐 요양병원,37.6573916,127.0655896,02-934-1300
"서울특별시 노원구 상계동 373번지 71호 , 상계동 373-45 , 상계동 373-7(1층~3층)","서울특별시 노원구 노원로 448 (상계동, 메디아이여성병원)",메디아이여성병원,37.656415,127.0670533,02-936-2122
"서울특별시 노원구 상계동 292번지 1호 와우쇼핑몰 7층,8층","서울특별시 노원구 노해로 507, 7,8층 (상계동, 와우쇼핑몰)",노원자생한방병원,37.6553388,127.0637614,02-2289-0717
"서울특별시 마포구 상암동 1738번지 푸르메재단넥슨어린이재활병원, 지하1층~7층","서울특별시 마포구 월드컵북로 494, 지하1층~7층 (상암동, 푸르메재단넥슨어린이재활병원)",푸르메재단 넥슨어린이재활병원,37.5846925,126.8805399,02-6070-9000
"서울특별시 노원구 상계동 723번지 2층, 3층, 5층","서울특별시 노원구 노해로 502, 2층, 3층, 5층 (상계동)",참튼튼병원,37.6544503,127.0636915,02-3392-9100
