지번주소,도로명주소,사업장명,위도_user,경도_user,전처리완_전화번호
서울특별시 강서구 마곡동 797-4 발산파크프라자,"서울특별시 강서구 공항대로 261, 발산파크프라자 4층 401호 (마곡동)",타임피부과의원,37.5590762,126.8364887,02-3663-5940
서울특별시 중구 남대문로2가 9-1,"서울특별시 중구 남대문로 84, 7층 (남대문로2가)",명동웰니스내과의원,37.5646485,126.9826975,02-6959-5791~2
서울특별시 영등포구 당산동2가 165 한화포레나당산,"서울특별시 영등포구 당산로 83, 201,202호 (당산동2가, 한화포레나당산)",오케이내과심장혈관흉부외과의원,37.52225019999999,126.8953397,02-2634-9980
서울특별시 강서구 염창동 274-18 한울밸리움,"서울특별시 강서구 공항대로 531, 202호 (염창동, 한울밸리움)",스타서울이비인후과의원,37.5511345,126.8654532,02-3663-5630
서울특별시 중구 신당동 369-11 약수JK빌딩 3층,"서울특별시 중구 다산로11길 3, 약수JK빌딩 3층 (신당동)",한길영상의학과의원,37.5544304,127.0100379,02-2256-7708
서울특별시 은평구 불광동 267,"서울특별시 은평구 통일로 746, 3층 (불광동)",약손부부한의원,37.611816,126.9288072,02-388-7510
서울특별시 양천구 신정동 1182번지 2호 3층,"서울특별시 양천구 중앙로 251, 3층 (신정동)",경희한의원,37.518679,126.8532072,02-2692-2188
,"서울특별시 서대문구 수색로 100, 103동 6호 (북가좌동, DMC래미안e편한세상)",삼성키즈소아청소년과의원,37.5725067,126.9109076,02-3151-0154
서울특별시 강남구 역삼1동 825번지 미진프라자 4층 405호,"서울특별시 강남구 강남대로 390, 4층 405호 (역삼동, 미진프라자)",브이맨비뇨기과의원,37.4978461,127.0286372,02-3469-1900
,서울특별시 양천구 곰달래로 20 (신월동),신월맥한의원,37.5296463,126.8347168,02-2608-1210
"서울특별시 강남구 개포동 1283 개포자이르네 203,203-1,204,218호","서울특별시 강남구 언주로7길 6, 2층 203,203-1,204,218호 (개포동, 개포자이르네)",개포센트럴이비인후과의원,37.4784719,127.0553589,02-577-2577
서울특별시 강남구 논현동 241-3 에스케이 허브블루,"서울특별시 강남구 학동로 342, 에스케이 허브블루 305호 (논현동)",조병훈치과의원,37.5166861,127.0405907,02-517-2090
서울특별시 영등포구 당산동3가 260,"서울특별시 영등포구 당산로 118, 5층 502호 (당산동3가)",조은탑내과의원,37.5250383,126.8971282,02-6953-2800
서울특별시 관악구 신림동 1735번지 8호,"서울특별시 관악구 난곡로 50, 2층 (신림동, 자연빌딩)",고운맘소아청소년과의원,37.460491,126.9201747,02-853-7705
서울특별시 강동구 성내동 397-6,"서울특별시 강동구 양재대로 1393, 3층 (성내동)",연세진치과의원,37.5305713,127.1367416,02-486-2882
서울특별시 서초구 서초동 1694번지 25호 삼하빌딩 4층,"서울특별시 서초구 서초중앙로 142, 4층 (서초동, 삼하빌딩)",백옥치과의원,37.4945667,127.0138073,537-5375
서울특별시 강동구 강일동 679 중앙프라자,"서울특별시 강동구 아리수로 427, 중앙프라자 2층 202호 (강일동)",더스킨피부과의원,37.5649156,127.1746242,02-0000-0000
서울특별시 강남구 신사동 581-15 한승빌딩 3층,"서울특별시 강남구 논현로 867, 한승빌딩 3층 (신사동)",올로성형외과의원,37.5262011,127.0282212,02-532-8800
서울특별시 마포구 중동 64-14 2층,"서울특별시 마포구 월드컵북로 236, 2층 (중동)",성산위편한내과의원,37.5703469,126.9034024,02-6351-1263
서울특별시 송파구 석촌동 14-7,"서울특별시 송파구 백제고분로 275, 4층 (석촌동)",두보한의원,37.5028244,127.0973526,02-420-2503
서울특별시 용산구 한남동 1-87,"서울특별시 용산구 독서당로 124, 3층 (한남동)",구도피부과의원,37.5370025,127.0127597,02-749-5005
서울특별시 강남구 논현동 231,"서울특별시 강남구 봉은사로37길 28, 3층 (논현동)",골드힐링한의원,37.5100534,127.0359577,02-514-0987
서울특별시 성동구 성수동1가 656-252 성수동1가,"서울특별시 성동구 뚝섬로 321-1, 2층 (성수동1가)",서울대니엘정신건강의학과의원,37.5411347,127.046885,02-462-7575
서울특별시 서초구 서초동 1327-7 강남선인빌딩,"서울특별시 서초구 서초대로78길 26, 강남선인빌딩 7층 (서초동)",아이마인드의원,37.4954073,127.0278263,02-597-8555
서울특별시 강남구 역삼동 820-8 YBM강남센터,"서울특별시 강남구 강남대로 408, YBM강남센터 3층, 13층 일부층 (역삼동)",강남밝은미소안과의원,37.499175,127.0274801,-1544-2271
서울특별시 강남구 역삼동 761-18 강남프라자 202호,"서울특별시 강남구 언주로 314, 강남프라자 202호 (역삼동)",역삼정내과의원,37.4959548,127.0466573,02-555-8632
서울특별시 관악구 신림동 617-3 프린스빌딩,"서울특별시 관악구 난우길 2, 프린스빌딩 5층 (신림동)",울트라내과의원,37.4732258,126.9191741,02-868-7588
서울특별시 영등포구 당산동6가 216-20 정오빌딩,"서울특별시 영등포구 양평로 12, 정오빌딩 2층 (당산동6가)",닥터알의원,37.5326488,126.9048943,02-2636-4580
서울특별시 서초구 서초동 1318,"서울특별시 서초구 강남대로 411, 11층 (서초동)",다이아의원,37.4904509,127.0305252,
,"서울특별시 강동구 고덕로 380, 고덕아르테온아파트(상가2동) 2동 207호 (상일제1동)",모두의한의원,37.5550187,127.1685024,02-442-3375
,"서울특별시 영등포구 양평로 24-1, 2~3층 (당산동6가)",당산경희한의원,37.5321368,126.9057189,02-3667-2662
,"서울특별시 송파구 송파대로 414 (송파동,2층)",미미한의원,37.5051072,127.1135469,02-6952-3130
,"서울특별시 양천구 신목로 97, 301호 (목동, 정산빌딩)",지혜한의원,37.5234448,126.8749883,
,서울특별시 강남구 강남대로 506 (논현동),맹화섭한의원,37.5136787,127.0317124,02-518-7277
서울특별시 강남구 논현동 2-15 수일빌딩,"서울특별시 강남구 도산대로 114, 수일빌딩 4층 (논현동)",디바인성형외과의원,37.5163704,127.02127,02-545-5110
서울특별시 성북구 동소문동3가 11번지 1층 일부,"서울특별시 성북구 동소문로 32, 1층 (동소문동3가)",삼선서울내과의원,37.5903868,127.0112534,02-922-8275
서울특별시 서초구 서초동 1676-1 신승빌딩,"서울특별시 서초구 서초대로 332, 신승빌딩 3층 (서초동)",재주좋은치과의원,37.4946848,127.0179003,02-584-2879
서울특별시 강남구 역삼동 707-34 한신인터밸리24,"서울특별시 강남구 테헤란로 322, 한신인터밸리24 205호 (역삼동)",동국해랑한의원,37.5029732,127.0465325,02-2183-2940
서울특별시 강남구 논현동 192-6 신양빌딩,"서울특별시 강남구 논현로 607, 신양빌딩 3층 (논현동)",신사이사랑치과의원,37.5079092,127.0333088,02-543-2585
"서울특별시 강남구 역삼동 706-9 타워432, 2층","서울특별시 강남구 언주로 432, 타워432 2층 (역삼동)",영앤이비인후과의원,37.5020866,127.0433669,02-558-4322
서울특별시 강남구 신사동 567-23,"서울특별시 강남구 논현로159길 10, 2, 3층 (신사동)",드림헤어라인의원,37.5231372,127.0274336,02-554-4664
서울특별시 서초구 양재동 97-6 유림빌딩,"서울특별시 서초구 양재천로 99-2, 유림빌딩 2층 (양재동)",10월10일한의원,37.4764147,127.0400036,02-572-1075
서울특별시 서초구 서초동 1755-1 리더스원 상가,"서울특별시 서초구 사임당로 158, 리더스원 상가 301-1호 (서초동)",소이안한의원,37.4918109,127.0270392,02-2039-1975
,"서울특별시 마포구 마포대로 68, 5층 506호 (도화동, 마포아크로타워)",생기한의원,37.5413152,126.9489731,02-714-1005
서울특별시 중구 신당동 369-48 JYJ빌딩 3층,"서울특별시 중구 동호로 179, JYJ빌딩 (신당동)",드림정신건강의학과의원,37.5541691,127.0108015,02-2252-7365
서울특별시 성북구 석관동 133번지 44호,"서울특별시 성북구 한천로76다길 46, 4층 (석관동)",연세다나아마취통증의학과의원,37.6130725,127.0652789,02-959-7575
서울특별시 강서구 등촌동 75-3,"서울특별시 강서구 양천로 490, 8층 801호 (등촌동)",아산온유외과의원,37.5575223,126.8559611,02-6958-7508
서울특별시 송파구 가락동 96 일신,"서울특별시 송파구 송파대로 288, 일신 4,5층 (가락동)",플러스마취통증의학과의원,37.4950423,127.11708,
서울특별시 강남구 도곡동 467-19 현대비전21,"서울특별시 강남구 언주로30길 10, 현대비전21 310호 (도곡동)",여름본마취통증의학과의원,37.4873616,127.0513255,02-6953-5737
서울특별시 서초구 서초동 1303-3 케이플라츠 신논현(구. 중앙화촌빌딩),"서울특별시 서초구 사평대로 368, 케이플라츠 신논현(구. 중앙화촌빌딩) 8층 (서초동)",샤프(SHARP)성형외과의원,37.5038336,127.0234948,02-599-8875
서울특별시 강남구 역삼동 826-21 미왕빌딩,"서울특별시 강남구 강남대로 364, 미왕빌딩 6층 (역삼동)",천인지한의원,37.4955525,127.0292924,02-334-1275
서울특별시 강남구 도곡동 420-16,"서울특별시 강남구 논현로28길 43, 4층 (도곡동)",주심한의원,37.4845023,127.045166,05-578-1075
서울특별시 송파구 풍납동 162-49,"서울특별시 송파구 풍성로 55, 1층 (풍납동)",튼튼소아청소년과의원,37.5339897,127.1186848,02-471-0990
서울특별시 마포구 합정동 473 마포 한강 2차 푸르지오,"서울특별시 마포구 월드컵로3길 14, 3층 309, 310, 311호 (합정동, 마포 한강 2차 푸르지오)",아산베스트이비인후과의원,37.5510197,126.9118255,02-6958-8520
,"서울특별시 노원구 노해로 492, 프린스빌딩 7층 704,705호 (상계동)",화접몽한의원,37.6544405,127.0626886,02-487-7579
,서울특별시 양천구 목동중앙북로 4 (목동),해바라기한의원,37.5485489,126.863923,02-2647-3775
"서울특별시 강남구 신사동 579번지 3호 베네하임시티 B101,B102","서울특별시 강남구 압구정로 162 (신사동, 베네하임시티 B101,B102)",노블라인의원,37.5262974,127.0274473,0507-1430-0755
서울특별시 중구 명동2가 51-3,"서울특별시 중구 명동8길 14, 3층 (명동2가)",메이의원,37.5630769,126.9845109,02-2298-2312
,"서울특별시 구로구 새말로 89, 태영빌딩 3층 (구로동)",이(e)스타치과의원,37.5055713,126.8898194,02-856-5400
서울특별시 강남구 논현동 200-7 urbanhive,"서울특별시 강남구 강남대로 476, urbanhive 6층 (논현동)",피니쉬성형외과의원,37.5048971,127.0247797,02-544-6326
,서울특별시 송파구 올림픽로12길 40 (잠실동),잠실본한의원,37.5111034,127.0939188,070-4095-8877
"서울특별시 구로구 구로동 806번지 78호 시몬빌딩 3,4층","서울특별시 구로구 구로동로 78, 시몬빌딩 3,4층 (구로동)",구로나르샤정형외과의원,37.4857869,126.8860168,02-855-9566
서울특별시 강남구 청담동 100-17,"서울특별시 강남구 압구정로 445, 3층 (청담동)",청담리더스피부과의원,37.5265497,127.0461088,02-6203-3301
서울특별시 광진구 능동 276-2,"서울특별시 광진구 천호대로 556, 5층 (능동)",서울바른안과의원,37.5567097,127.0797015,02-6217-7500
서울특별시 양천구 목동 406번지 202호,"서울특별시 양천구 목동동로 260 (목동, 양지타운)",연세크리스마스치과의원,37.5257348,126.8746719,2645-5540
,서울특별시 강동구  양재대로  1311 (성내동),둔촌경희한의원,37.5304933,127.128992,02-472-7979
"서울특별시 강서구 등촌동 631번지 등촌두산위브센티움1층 116,117,118호","서울특별시 강서구 양천로 564, 1층 116-118호 (등촌동, 등촌두산위브센티움)",미래아이소아청소년과안과의원,37.5571535,126.8613865,02-3663-7799
,"서울특별시 강동구 암사길 37, 2층 (암사동)",경희아침한의원,37.5519313,127.1335809,02-441-1275
,"서울특별시 서대문구 증가로 134, 1층 (남가좌동)",윤경희한의원,37.5776423,126.9228325,02-304-8875
서울특별시 구로구 고척동 191-1 연세사랑모아여성병원,"서울특별시 구로구 중앙로 100, 연세사랑모아여성병원 1동 201호 (고척동)",닥터존의원,37.5063195,126.8606021,02-2614-0911
,"서울특별시 강동구 구천면로 236 (천호동, 2층)",보광한의원,37.5461308,127.135633,02-479-1275
서울특별시 중구 신당동 369-101 5층,"서울특별시 중구 다산로 128-1, 5층 (신당동)",리멤버피부과의원,37.5551618,127.0111912,02-2234-7575
,"서울특별시 서대문구 수색로 56, 성공타워1 406호 (북가좌동)",서울퍼스트치과의원,37.5708579,126.9126009,02-3152-2828
서울특별시 관악구 신림동 1635번지 82호,"서울특별시 관악구 문성로 219, 2층 (신림동)",한사랑의원,37.4795277,126.9282891,02-856-1717
서울특별시 강남구 역삼동 822번지 4호 강남제일빌딩 10층일부,"서울특별시 강남구 테헤란로 109 (역삼동, 강남제일빌딩10층일부)",자연과한의원,37.498794,127.0289942,501-2120
,서울특별시 동대문구 약령중앙로2길 5 (제기동),제인한의원,37.5788966,127.0373001,02-966-9006
서울특별시 노원구 공릉동 441-93 우은빌딩,"서울특별시 노원구 동일로192길 74, 5층 502호 (공릉동, 우은빌딩)",고려숲정신건강의학과의원,37.6271108,127.0769902,02-977-7575
서울특별시 중랑구 면목동 634-2 삼성종합프라자,"서울특별시 중랑구 면목로 319, 삼성종합프라자 2층 우측호 (면목동)",리퓨어피부과의원,37.5804429,127.0881517,02-466-9033
서울특별시 동작구 대방동 335번지 17호,"서울특별시 동작구 상도로 81, 7층 (대방동, 성모빌딩)",성모정형외과의원,37.4999055,126.9295337,02-817-7714
서울특별시 동작구 사당동 1031-28,"서울특별시 동작구 동작대로 25, 3층 (사당동)",다나정형외과의원,37.4787435,126.9812909,02-525-8550
,"서울특별시 서초구 신반포로 177, 526~532호 (잠원동, 반포쇼핑)",정용수한의원,37.5061225,127.0036962,02-3477-3010
,서울특별시 노원구 공릉로32길 4 (공릉동),참사랑한의원,37.6219855,127.0793464,02-973-9373
서울특별시 송파구 오금동,"서울특별시 송파구 양재대로 1164, 401호, 402호 (오금동, 홍일빌딩)",씨디아이씨시카고치과의원,37.5110772,127.1283976,02-406-1918
서울특별시 서초구 서초동 1671번지 1호 2층,"서울특별시 서초구 서초대로52길 7, 2층 (서초동)",새사랑한의원,37.4935086,127.0146712,02-582-7579
서울특별시 관악구 봉천동 852번지 2호 서호빌딩,"서울특별시 관악구 봉천로 488, 4층 (봉천동, 서호빌딩)",관악이비인후과의원,37.481462,126.9538922,02-872-6162
서울특별시 도봉구 쌍문동 503-12 노스브릭,"서울특별시 도봉구 삼양로 580-4, 3층 1호 (쌍문동, 노스브릭)",솔밭한의원,37.6577048,127.0377082,02-994-2266
서울특별시 강남구 개포동 158 일영빌딩 7층,"서울특별시 강남구 선릉로 28, 일영빌딩 7층 (개포동)",연세꿈꾸는치과의원,37.4823209,127.0613457,02-572-2879
서울특별시 금천구 독산동 1155번지 금천롯데캐슬골드파크3차,"서울특별시 금천구 시흥대로 291, L층 B17호 (독산동, 금천롯데캐슬골드파크3차)",선민한의원,37.4604657,126.8974181,02-6959-8275
,"서울특별시 강동구 올림픽로 572, 2층 205호 (성내동, 코오롱 2차아파트)",혜원한의원,37.5325138,127.1217898,02-3431-1322
서울특별시 송파구 신천동 20-6 파크리오,"서울특별시 송파구 올림픽로35길 10, B동 2층 214호 (신천동, 파크리오)",서울아산김영식의원,37.5202793,127.1131592,02-423-3830
서울특별시 동대문구 답십리동 266-1 5층,"서울특별시 동대문구 전농로 38, 5층 (답십리동)",더섬세한치과의원,37.568285,127.0572991,02-2213-2275
서울특별시 성동구 성수동1가 656-1028,"서울특별시 성동구 뚝섬로1길 53-1, 2층 (성수동1가)",이승필가정의학과의원,37.5460191,127.0474748,02-6956-8525
서울특별시 광진구 구의동 214-6,"서울특별시 광진구 구의강변로 86, 201, 202호 (구의동)",원제한의원,37.5381389,127.0939329,"02-2267-1541, 1542"
서울특별시 동작구 대방동 394-7 금성빌딩,"서울특별시 동작구 상도로 65, 금성빌딩 2층 2호 (대방동)",소리숨이비인후과의원,37.50606,126.9344857,02-812-5075
서울특별시 광진구 화양동 48-14 삼영빌딩,"서울특별시 광진구 아차산로 219, 삼영빌딩 3층 (화양동)",은유외과의원,37.5411488,127.0679331,02-464-6879
서울특별시 서초구 잠원동 27-2,"서울특별시 서초구 강남대로 589, 1동 2층 202,203,204호 (잠원동)",신사터미널마취통증의학과의원,37.5143873,127.01915,
서울특별시 강남구 대치동 1024 디마크 빌딩,"서울특별시 강남구 도곡로 408, 디마크 빌딩 404호 (대치동)",에펠산부인과의원,37.4966281,127.055214,02)2039-7597
서울특별시 노원구 월계동 413-1 주원21빌딩,"서울특별시 노원구 석계로 102, 주원21빌딩 (월계동)",동그라미한의원,37.6232317,127.0609242,
서울특별시 강남구 신사동 570-12 낙산프라자 5층,"서울특별시 강남구 논현로167길 9, 낙산프라자 5층 (신사동)",오상신경외과의원,37.5244491,127.0274542,02-514-8887
서울특별시 강남구 신사동 514-2,"서울특별시 강남구 도산대로 119, 10층 (신사동)",모원성형외과의원,37.5173048,127.0214745,02-543-1190
서울특별시 강서구 마곡동 799-1 로뎀타워,"서울특별시 강서구 공항대로 186, 로뎀타워 203,203-1층 204,205,211호 (마곡동)",로뎀소아청소년과의원,37.5590505,126.8279327,02-2667-0130
서울특별시 노원구 상계동 728-5 상계동 국민은행,"서울특별시 노원구 동일로 1380, 상계동 국민은행 6층 (상계동)",서울N비뇨의학과의원,37.6517461,127.0616573,02-932-9111
,"서울특별시 강서구 화곡로 199, 2층 (화곡동)",삼성한의원,37.5435586,126.8428888,02-2607-7588
서울특별시 강남구 역삼동 825-20 강남역 센트럴 푸르지오 시티,"서울특별시 강남구 테헤란로4길 6, 강남역 센트럴 푸르지오 시티 3층 310호 (역삼동)",강남미래영상의학과의원,37.4977256,127.0292972,02-6949-3378
,"서울특별시 용산구 한강대로 95, 지2층 B205호 (한강로2가, 래미안용산 더 센트럴)",라파엘한의원,37.5287967,126.9671806,02-790-8775
,"서울특별시 강서구 강서로 385, 우성에스비타워 2층 201,202호 (마곡동)",경희위드한의원,37.5601106,126.8382926,02-3661-9700
서울특별시 노원구 상계동 728-5 상계동 국민은행,"서울특별시 노원구 동일로 1380, 상계동 국민은행 5층 (상계동)",리멤버피부과의원,37.6517461,127.0616573,02-936-8253
서울특별시 영등포구 대림동 1127 e편한세상 영등포 아델포레,"서울특별시 영등포구 신길로 29, 105동 2층 203, 204, 205, 209호 (대림동, e편한세상 영등포 아델포레)",삼성필정형외과의원,37.4952313,126.9082859,02-836-8288
서울특별시 마포구 동교동 159-1 상진빌딩 5층,"서울특별시 마포구 양화로 165, 상진빌딩 5층 (동교동)",반듯한정형외과의원,37.5571739,126.923614,02-333-7588
서울특별시 성북구 길음동 864-18 장안빌딩 4층,"서울특별시 성북구 도봉로 3, 장안빌딩 4층 (길음동)",이상한나라앨리스치과의원,37.6094465,127.0297975,02-6949-2323
,"서울특별시 마포구 대흥로 183, 신촌그랑자이 상가 209,210호 (대흥동)",이화한의원,37.5553725,126.9444823,02-702-2555
서울특별시 종로구 평창동 411-10,"서울특별시 종로구 평창7길 90, 2층 (평창동)",김창윤정신건강의학과의원,37.6156981,126.9797483,02-794-3418
,"서울특별시 영등포구 여의대방로 383, 경도빌딩 309, 310호 (여의도동)",덕상한의원,37.5193784,126.9314564,02-785-6369
,"서울특별시 은평구 진관3로 20, 6층 (진관동, SW/메디컬)",연세호치과의원,37.6388795,126.9183226,02-357-2882
,"서울특별시 성북구 안암로 105, 지상1층 (안암동5가)",동성제일한의원,37.5851069,127.0314191,02-926-0512
서울특별시 강남구 대치동 1021-4 강남메이저의원7층,"서울특별시 강남구 도곡로 452, 강남메이저의원 7층 (대치동)",웰케어의원,37.4982085,127.0599069,02-2135-8360
서울특별시 강서구 등촌동 628-6,"서울특별시 강서구 화곡로68길 3, 505~506호 (등촌동)",삼성숨소리이비인후과의원,37.559569,126.8547425,02-3663-3200
서울특별시 도봉구 방학동 704-37,"서울특별시 도봉구 도봉로149길 6, 1,2층 (방학동)",정앤최정형외과의원,37.666235,127.0425481,02-900-9942
서울특별시 용산구 한남동 11-323,"서울특별시 용산구 유엔빌리지길 72, 1층 (한남동)",수연제장의원,37.5321448,127.0108247,02-3438-0510
서울특별시 양천구 목동 966 목동에버하임,"서울특별시 양천구 목동중앙북로 68, 2층 201~216호 (목동, 목동에버하임)",제이본정형외과의원,37.5465877,126.870688,02-2652-3175
서울특별시 서초구 서초동 1329-4 우남빌딩,"서울특별시 서초구 강남대로 349, 우남빌딩 8층 (서초동)",강남엔터치과의원,37.4939326,127.0290045,02-588-0275
서울특별시 서초구 서초동 1327-34 솔라티움시티 강남,"서울특별시 서초구 강남대로53길 12, 솔라티움시티 강남 1동 6층 601호 (서초동)",강남경희한의원,37.4943871,127.0276866,0303-0959-8677
서울특별시 성북구 장위동 237-232,"서울특별시 성북구 돌곶이로 191, 2층 (장위동)",튼튼업한의원,37.6172364,127.0481779,02-941-1575
서울특별시 강남구 논현동 241-1 강남파라곤,"서울특별시 강남구 학동로 338, 2층 (논현동, 강남파라곤)",청담지온유의원,37.5165513,127.0401391,02-545-9402
서울특별시 동작구 상도동 170-10,"서울특별시 동작구 상도로 206, 3층 (상도동)",오케이정형외과의원,37.5049723,126.9415138,02-813-1886
,"서울특별시 서대문구 신촌로 99, 5층 (창천동, 엘리트빌딩 )",쉬즈한의원,37.5556187,126.937196,02-393-1095
서울특별시 강남구 논현동 192-4,"서울특별시 강남구 논현로 611, 2층 (논현동)",올리올리의원,37.5082467,127.0331112,02-545-5451
서울특별시 서초구 잠원동 69-19 반포쇼핑타운,"서울특별시 서초구 신반포로 213, 반포쇼핑타운 1층 5,6,16,17,25,26,35,36,37호 (잠원동)",르웰(LEWELL)의원,37.5072287,127.0072503,02-0000-0000
서울특별시 강남구 신사동 621-2 쉬즈.애비뉴빌딩 6층,"서울특별시 강남구 언주로 859, 쉬즈.애비뉴빌딩 6층 (신사동)",엑소메디의원,37.5272072,127.0330744,02-549-8875
서울특별시 강동구 성내동 428-6,"서울특별시 강동구 양재대로 1349, 3층 (성내동)",올림픽오라클치과의원,37.52678510000001,127.135324,02-6952-7522
서울특별시 성북구 동소문동5가 75 메디컬센터빌,"서울특별시 성북구 동소문로 98, 메디컬센터빌 3층 (동소문동5가)",돈암성모내과의원,37.5916389,127.0153864,02-928-7588
서울특별시 양천구 목동 808-1 경원빌딩,"서울특별시 양천구 목동로 234, 경원빌딩 2층 (목동)",아비쥬의원,37.529422,126.8645546,2603-0377
,"서울특별시 양천구 신월로 301, 2층 (신정동)",다솔한의원,37.5215684,126.8544211,02-2698-0090
서울특별시 강동구 고덕동 343-2 강동U1센터,"서울특별시 강동구 고덕비즈밸리로 26, 강동U1센터 A동 2층 210~212호 (고덕동)",케이유이비인후과의원,37.555051,127.15411,02-6417-0210
서울특별시 강남구 역삼동 765-17 지하1층,"서울특별시 강남구 도곡로 331, 지하1층 (역삼동)",대치뷰티라운지의원,37.4964861,127.0522022,02-2135-9116
서울특별시 양천구 목동 615-1,"서울특별시 양천구 목동중앙북로4길 6, 2층 (목동)",서울바른신경외과의원,37.5485489,126.863923,02-2088-7588
서울특별시 광진구 자양동 216-7,"서울특별시 광진구 아차산로 382, 2층 (자양동)",프레즌트정신건강의학과의원,37.53666250000001,127.085267,02-452-9275
서울특별시 양천구 신정동 1183번지 10호,"서울특별시 양천구 중앙로 259, 2층 (신정동)",삼성플란트치과의원,37.5194044,126.8528876,02-2602-2080
,서울특별시 강서구 가로공원로76길 55 (화곡동),홍익한의원,37.5346475,126.8381285,02-2607-9827
,"서울특별시 강남구 선릉로 34, 6층 (개포동)",연세퍼스트이비인후과의원,37.4802905,127.0626272,02-579-2579
서울특별시 마포구 서교동 394-44 서교제일빌딩,"서울특별시 마포구 양화로 64, 서교제일빌딩 4층 401호 (서교동)",연세하루이비인후과의원,37.5503193,126.91579,02-6958-7585
서울특별시 강남구 논현동 199-5 2층,"서울특별시 강남구 강남대로 480, 2층 (논현동)",아크로한의원,37.5052991,127.0245806,02-6925-1175
서울특별시 마포구 노고산동 57-18 신촌르?메이에르타운(I) 201호,"서울특별시 마포구 서강로 137-7, 신촌르?메이에르타운(I) 2층 201호 (노고산동)",청감송명근의원,37.55487249999999,126.9354086,02-715-9933
서울특별시 강남구 논현동 215-12,"서울특별시 강남구 논현로 656, B1~1층 (논현동)",플러스후강남의원,37.5125441,127.0318227,02-548-8276
,"서울특별시 서초구 동작대로 114, 5층 (방배동, (재)원불교 유문빌딩)",서울에스마취통증의학과의원,37.4867473,126.9826666,02-535-4170
서울특별시 동작구 대방동 501번지,"서울특별시 동작구 여의대방로 250, 상가동 4-7호 (대방동, 대림아파트(상가동))",평제한의원,37.5073715,126.9247846,02-815-7720
서울특별시 강남구 삼성동 49번지 12호 2층,"서울특별시 강남구 봉은사로 469, 2층 (삼성동)",에스티성모피부과의원,37.5126001,127.0507861,02-545-3575
서울특별시 양천구 목동 923번지 세신비젼프라자 4층(일부),"서울특별시 양천구 목동서로 213, 세신비젼프라자 4층 일부호 (목동)",경희 행복나무 한의원,37.5280098,126.8705367,02-2662-1075
서울특별시 마포구 신수동 462 신촌숲아이파크,"서울특별시 마포구 광성로 17, 상가동 112호, 113호 (신수동, 신촌숲아이파크)",삼성드림소아청소년과의원,37.5499797,126.934979,02-703-0098
서울특별시 강남구 삼성동 170  대윤빌딩 지하1층,"서울특별시 강남구 영동대로96길 34, 대윤빌딩 지하1층 (삼성동)",더시카고치과의원,37.5112294,127.0652939,558-2820
서울특별시 동대문구 장안1동 395번지 1호,서울특별시 동대문구 답십리로66길 105 (장안동),녹수한의원,37.5682298,127.0659538,02-2248-3050
,"서울특별시 동작구 보라매로5가길 16, 302호 (신대방동, 보라매아카데미타워)",경희미르애한의원,37.4913311,126.924105,02-6956-0696
서울특별시 강남구 청담동 84-19 청담SM빌딩 3~5층,"서울특별시 강남구 선릉로160길 7, 청담SM빌딩 3~5층 (청담동)",유라인의원,37.5263579,127.0409101,02-516-7588
서울특별시 성북구 동소문동1가 113번지 외1필지,서울특별시 성북구 동소문로7길 3 (동소문동1가),김앤김안과의원,37.5899753,127.0090886,742-2385
,"서울특별시 관악구 관악로 208, 2층 (봉천동)",서울대입구백세한의원,37.4833561,126.9547319,-886-6363
서울특별시 강남구 개포동 655-4 개포동 메디시스빌딩 403호,"서울특별시 강남구 개포로 265, 개포동 메디시스빌딩 403호 (개포동)",리솜치과의원,37.48094690000001,127.0529676,02-2058-2828
서울특별시 성동구 성수동1가 14번지 33호 정명빌딩 7층,"서울특별시 성동구 아차산로 42, 정명빌딩 7층 (성수동1가)",스누피부과의원,37.5464424,127.0491136,02-499-6008
서울특별시 강남구 논현동 202-16 성옥빌딩,"서울특별시 강남구 봉은사로 119, 성옥빌딩 1층 (논현동)",우유빛의원,37.5054446,127.0266779,02-542-9993
서울특별시 중랑구 중화2동 304번지 70호 대원메디칼빌딩,"서울특별시 중랑구 중랑역로 90 (중화동, 대원메디칼빌딩)",편안한내과의원,37.576797,127.0723556,02-491-5967
서울특별시 서초구 서초동 1335,"서울특별시 서초구 효령로 403, 306호 (서초동)",웃는오늘치과의원,37.4890871,127.0261778,02-539-2879
서울특별시 노원구 공릉동 408번지 4호 건설빌딩 2층,"서울특별시 노원구 공릉로 187, 2층 (공릉동)",해독한의원,37.626444,127.0788963,02-948-2709
서울특별시 성북구 종암동 3번지 1343호 2층 201호,"서울특별시 성북구 종암로 123, 2층 201호 (종암동)",국민건강내과의원,37.6009919,127.0331641,02-2033-9909
서울특별시 강서구 마곡동 739번지 3호 에스비타운,"서울특별시 강서구 마곡중앙5로 81, 에스비타운 4층 404,405,407호 (마곡동)",마음속내과의원,37.5670441,126.8185967,02-2662-1222
서울특별시 강남구 개포동 189 개포자이 프레지던스,"서울특별시 강남구 삼성로 14, S동 216호, 312호 (개포동, 개포자이 프레지던스)",연세도우리소아청소년과의원,37.48553709999999,127.0714351,02-459-2024
서울특별시 강서구 방화동 563번지 25호,"서울특별시 강서구 금낭화로 75, 2층 (방화동)",연세바른마취통증의학과의원,37.5721922,126.8112486,02-2663-1275
서울특별시 동대문구 답십리동 488번지 46호 2층,"서울특별시 동대문구 전농로 24, 2층 (답십리동, 계림빌딩)",서울완수치과의원,37.5670027,127.0569381,2244-2879
서울특별시 강동구 길동 389-2,"서울특별시 강동구 양재대로 1471, 2층 (길동)",강동길동매일365한의원,37.5372822,127.1394091,02-2088-6575
,서울특별시 도봉구 노해로 341 (창동),이레한의원,37.6514477,127.0459346,02-998-5515
,"서울특별시 구로구 남부순환로97길 12, 진영빌딩 4층 (개봉동)",조은한의원,37.4941566,126.8587013,02-6953-7984
서울특별시 송파구 방이동 104-5,"서울특별시 송파구 오금로17길 17, 3층 (방이동)",김동현치과의원,37.5122873,127.1119376,417-2875
"서울특별시 강남구 개포동 189 개포자이 프레지던스 303,304호","서울특별시 강남구 삼성로 14, 3층 303,304호 (개포동, 개포자이 프레지던스)",성모베스트이비인후과의원,37.48553709999999,127.0714351,02-6207-1550
서울특별시 서초구 방배동 1024번지 1호 205호,"서울특별시 서초구 방배로 32, 205호 (방배동)",박정수연세의원,37.4778829,127.000334,581-3735
,서울특별시 동대문구 천호대로 72 (용두동),김승일마취통증의학과의원,37.5757257,127.034286,02-927-2471
,"서울특별시 영등포구 디지털로54길 3, 2층 202호 (대림동, 동보빌딩)",한사랑한의원,37.4904929,126.901741,02-834-9650
서울특별시 금천구 독산3동 159번지 1호,"서울특별시 금천구 시흥대로138길 10, 2층 (독산동)",해솔한의원,37.4726575,126.8990432,02-857-7555
,"서울특별시 강남구 학동로 327, 2,3층 (논현동, YD빌딩)",영동한의원,37.5166954,127.0388445,-542-9557
서울특별시 성동구 성수동2가 314-5 S TOWER,"서울특별시 성동구 아차산로 92, S TOWER 201호 (성수동2가)",두나한의원,37.5448616,127.0542854,02-465-3650
"서울특별시 은평구 신사동 335번지 27호 2,5,6,7층","서울특별시 은평구 가좌로 271 (신사동, 2,5,6,7층)",강변정형외과의원,37.6006835,126.9074231,02-307-5400
서울특별시 강남구 청담동 87-9 4층,"서울특별시 강남구 선릉로152길 18, 4층 (청담동)",이와이의원,37.5240565,127.0409467,02-3448-9007
서울특별시 중랑구 면목동 282-6 면목역,"서울특별시 중랑구 면목로 지하407, 면목역 B1층 109,110호 (면목동)",면목팔팔365의원,37.588745,127.087494,02-493-8875
서울특별시 서초구 방배동 897-1,"서울특별시 서초구 서초대로26길 3, 2층 (방배동)",진성한의원,37.4876589,126.994554,02-534-2133
,"서울특별시 양천구 목동동로 67, 2층 (신정동)",화이팅한의원,37.5156751,126.8625247,02-2652-7510
서울특별시 강남구 청담동 22번지 12호 3층,"서울특별시 강남구 도산대로58길 14, 3층 (청담동)",윤은성성형외과의원,37.5224083,127.0412849,518-2380
,"서울특별시 도봉구 도봉로 487, 3층 (쌍문동, 하나제이빌딩)",김충길치과의원,37.6491844,127.0346764,02-998-1112
,서울특별시 도봉구 시루봉로15길 36 (방학동),사랑방한의원,37.6687046,127.032098,02-3493-0075
서울특별시 성동구 하왕십리동 966-11 유성빌딩,"서울특별시 성동구 왕십리로 333, 유성빌딩 2층 (하왕십리동)",서울으뜸내과의원,37.5627182,127.0325476,02-2297-7077
"서울특별시 중구 신당동 369-48 JYJ빌딩, 5~7층","서울특별시 중구 동호로 179, JYJ빌딩 5~7층 (신당동)",서울본재활의학과의원,37.5541691,127.0108015,02-2237-4275
서울특별시 은평구 대조동 12번지 2호,서울특별시 은평구 불광로 17 (대조동),사람사랑치과의원,37.61005,126.9280678,02-385-2275
서울특별시 동작구 흑석동 100-9 세명빌딩,"서울특별시 동작구 서달로 163, 세명빌딩 4,5층 (흑석동)",송샘산부인과의원,37.5078892,126.962493,02-825-7705
서울특별시 강남구 신사동 583-3 제이비 미소빌딩,"서울특별시 강남구 논현로 841, 제이비 미소빌딩 2층 204~205호 (신사동)",엘르성형외과의원,37.5240574,127.0279161,3446-7377
서울특별시 중구 을지로6가 18-131 을지회관 2층 202호,"서울특별시 중구 을지로 251, 을지회관 2층 202호 (을지로6가)",클리오닉이비인후과의원,37.5665377,127.0063656,02-2272-6458
서울특별시 서초구 서초동 1317-14,"서울특별시 서초구 서초대로77길 5, 12층 (서초동)",여름의원,37.4983568,127.0264406,02-3478-177
,"서울특별시 서대문구 통일로 438, 2층 (홍제동)",할아버지한의원,37.5881622,126.9453227,02-3217-0163
서울특별시 동작구 대방동 333번지 3호 남지빌딩,"서울특별시 동작구 국사봉1길 3, 남지빌딩 4층 (대방동)",예담신경외과의원,37.4991265,126.9287614,02-822-8275
서울특별시 송파구 문정동 643-1 엠스테이트,"서울특별시 송파구 법원로 114, 엠스테이트 (문정동)",서울으뜸정신건강의학과의원,37.4816698,127.1206971,
서울특별시 동작구 상도동 365번지 4호 덕신빌딩,"서울특별시 동작구 등용로 2, 덕신빌딩 5층 (상도동)",장승배기한의원,37.5046074,126.9378811,02-815-1117
,"서울특별시 강남구 압구정로 316, 영진빌딩 5층 (신사동)",이브의슈가한의원,37.5287156,127.0360075,02-543-4969
서울특별시 양천구 신정4동 888번지 47호 담우빌딩 9층,"서울특별시 양천구 신정중앙로 103, 9층 (신정동, 담우빌딩)",더블유항외과의원,37.5265011,126.8633679,02-2692-7175
서울특별시 동대문구 장안동 430-8,"서울특별시 동대문구 장한로 29, 3층 (장안동)",장안뉴욕치과의원,37.5711121,127.0696747,02-457-2275
,"서울특별시 강북구 삼양로 190, 백운M빌딩 2~3층 (미아동)",서울넘버원정형외과의원,37.6208413,127.0209561,02-987-1111
서울특별시 성북구 길음2동 516번지 3호 지상3층,"서울특별시 성북구 동소문로 311, 지상3층 (길음동)",연세밝은아이치과의원,37.6077349,127.0286911,02-985-1275
,"서울특별시 강동구 양재대로 1478, 4층 (길동)",오케이한의원,37.5376692,127.1402629,
서울특별시 강남구 청담동 80-6,"서울특별시 강남구 압구정로 434, 3층 (청담동)",청담제이더마의원,37.52658940000001,127.0443068,02-516-9855
,"서울특별시 송파구 올림픽로 293-19 (신천동, 현대타워 104호)",잠실아이정신건강의학과의원,37.515155,127.1025009,02-2202-7512
서울특별시 중랑구 신내2동 646번지 금강리빙스텔 202호,"서울특별시 중랑구 신내로 211, 202호 (신내동, 금강리빙스텔)",e-편한치과의원,37.6163253,127.0926776,02-3423-2805
서울특별시 노원구 공릉동 420-2 공릉동평화타운,"서울특별시 노원구 공릉로46길 3, 3층 301호 (공릉동, 공릉동평화타운)",서울건우정형외과의원,37.6271808,127.0791659,02-974-7575
"서울특별시 강남구 개포동 12번지 4호 202,203호일부","서울특별시 강남구 개포로 615 (개포동, 202호, 203호일부)",예사랑피부과의원,37.4926936,127.0756284,445-7075
"서울특별시 성북구 정릉동 16번지 174호 1층 일부, 2층 전체","서울특별시 성북구 정릉로 322, 1층 일부, 2층 (정릉동)",정릉제일정형외과의원,37.6025001,127.0175438,02-942-0857
서울특별시 강남구 청담동 88-19 2층,"서울특별시 강남구 선릉로158길 14-2, 2층 (청담동)",청담파크의원,37.5251317,127.0411984,02-3445-8819
서울특별시 영등포구 여의도동 36번지 2호 맨하탄빌딩 301호,서울특별시 영등포구 국제금융로6길 33 (여의도동),여의신광한의원,37.520782,126.9269161,02-783-8775
서울특별시 서초구 서초동 1305-7,"서울특별시 서초구 강남대로 429, 7층 (서초동)",톤즈의원,37.5008693,127.0256886,
,"서울특별시 도봉구 도당로 80, 방학동근생 2층 (방학동)",길한의원,37.6648315,127.0363964,02-904-7533
,"서울특별시 서대문구 통일로40길 19, 1층 (홍제동)",인왕한의원,37.5903782,126.9439276,02-3217-8025
서울특별시 서초구 양재동 13-8 보은빌딩,"서울특별시 서초구 강남대로 212, 보은빌딩 8층 (양재동)",핑슬림의원,37.4831382,127.0360516,554-1969
서울특별시 종로구 낙원동 56 각연빌딩,"서울특별시 종로구 삼일대로30길 10-3, 각연빌딩 2층 (낙원동)",종로본치과의원,37.5737079,126.9883655,02-765-2875
서울특별시 강남구 논현동 241-1 강남파라곤,"서울특별시 강남구 학동로 338, 2층 204호 (논현동, 강남파라곤)",반룡인수한의원,37.5165513,127.0401391,02-3446-4278
서울특별시 서초구 양재동 11번지 17호 11-17 한솔로이젠트 302호,"서울특별시 서초구 남부순환로 2614, 310호 (양재동, 한솔로이젠트)",연세손정신건강의학과의원,37.4844752,127.0366578,529-7599
서울특별시 성북구 동소문동5가 75,"서울특별시 성북구 동소문로 98, 4층 (동소문동5가)",성북본튼튼의원,37.5916389,127.0153864,02-921-8275
서울특별시 관악구 봉천동 702번지 40호 관악농협,"서울특별시 관악구 보라매로 12, 관악농협 5층 (봉천동)",연세한마취통증의학과의원,37.4905158,126.9278103,02-875-7900
,"서울특별시 강서구 공항대로 627, 4층 (염창동, 대신빌딩)",월인한의원,37.547251,126.8745264,02-3662-4836
"서울특별시 은평구 응암동 20번지 2호 B01,101,202,203","서울특별시 은평구 통일로 599, B01,101,202,203호 (응암동)",한국영상의학과의원,37.5938352,126.9231281,02-388-7674
"서울특별시 서대문구 홍제동 330번지 66호 3, 4층","서울특별시 서대문구 통일로 451, 3층, 4층 (홍제동, 외환은행빌딩)",스마일영상의학과의원,37.5887021,126.9439206,02-391-3912
서울특별시 서초구 양재동 14-1,"서울특별시 서초구 강남대로 206, 4층 (양재동)",양재마디튼튼의원,37.4826448,127.0365464,02-2057-0777
,"서울특별시 영등포구 여의대방로 95, 태창빌딩 3층 (신길동)",사람사랑치과의원,37.4975897,126.9171582,02-845-7577
,"서울특별시 양천구 목동로 210, 타운빌딩 2층 202호 (목동)",해움한의원,37.5273832,126.864447,0507-1313-7559
서울특별시 금천구 독산동 990번지 17호 1층,"서울특별시 금천구 독산로 289, 1층 (독산동)",남문한의원,37.4726997,126.9029941,02-856-1611
서울특별시 강남구 삼성동 159번지 코엑스몰 지하 H111,"서울특별시 강남구 영동대로 513 (삼성동, 코엑스몰 지하 H111)",코나이비인후과의원,37.5113686,127.0595931,02-6002-3338
서울특별시 영등포구 신길동 362번지 3호 2층,"서울특별시 영등포구 도신로 90, 2층 (신길동, 서울크리닉빌딩)",동성한의원,37.5069291,126.9024703,02-835-2402
서울특별시 강서구 가양동 1478 가양4단지아파트,"서울특별시 강서구 양천로57길 37, 201, 203호 (가양동, 가양4단지아파트)",우충아의원,37.5645075,126.8527332,02-3663-7708
서울특별시 마포구 아현동 618번지 19호 마포 센텀 슬로우스퀘어,"서울특별시 마포구 마포대로 173-14, 마포 센텀 슬로우스퀘어 2층 205~207호 (아현동)",다미의원,37.5509007,126.9534514,02-364-3323
서울특별시 강남구 역삼동 825-9 준빌딩 7층,"서울특별시 강남구 강남대로 378, 준빌딩 7층 (역삼동)",프롭비한의원,37.4966547,127.0286389,02-538-8520
,"서울특별시 강남구 선릉로157길 14, 한주빌딩 3,4층 (신사동)",로데오스타의원,37.5261708,127.0388309,070-4492-3900
,"서울특별시 강북구 도봉로 205, 3층 (미아동)",강북성모내과의원,37.6268548,127.0255995,02-6011-3259
,"서울특별시 중랑구 용마산로 494, 201호 (망우동)",경희손한의원,37.5973668,127.0955186,02-2208-1075
서울특별시 송파구 오금동 1 홍일빌딩,"서울특별시 송파구 양재대로 1164, 홍일빌딩 1층 (오금동)",서울더나은마취통증의학과의원,37.5110443,127.1282342,02-409-0001
서울특별시 강남구 논현동 92 SB타워,"서울특별시 강남구 도산대로 318, SB타워 804호 (논현동)",화이트성형외과의원,37.5220158,127.0363493,518-7070
서울특별시 강동구 길동 412번지 11호,서울특별시 강동구 양재대로 1459 (길동),강동정신건강의학과의원,37.5361835,127.1389478,02-487-6220
서울특별시 강남구 삼성동 158-10 마젤란 21 아스테리움 301호,"서울특별시 강남구 테헤란로87길 17, 마젤란 21 아스테리움 301호 (삼성동)",얀의원,37.5087655,127.05838,02-501-1323
서울특별시 서초구 잠원동 20-9 휴먼TOWER,"서울특별시 서초구 강남대로 605, 휴먼TOWER 12층 1202호 (잠원동)",레리의원,37.515763,127.0191828,02)541-1045
서울특별시 송파구 송파동 19-6 우성빌딩,"서울특별시 송파구 백제고분로 381, 우성빌딩 3층 (송파동)",뉴에이징의원,37.5061139,127.1079123,02-2141-1000
서울특별시 마포구 동교동 162-15,"서울특별시 마포구 양화로 140, 6층 일부호 (동교동)",톤즈의원,37.5575817,126.9251554,02-6956-5588
서울특별시 서초구 서초동 1673-10 소망빌딩,"서울특별시 서초구 서초대로 310, 소망빌딩 6층 (서초동)",하워드마취통증의학과의원,37.4939928,127.0155402,02-2236-8188
서울특별시 서초구 서초동 1674-4 하림인터내셔날빌딩,"서울특별시 서초구 서초대로 320, 하림인터내셔날빌딩 201호 (서초동)",하이맵의원,37.4940681,127.0161973,02-6232-7582
서울특별시 관악구 신림동 1638-16,"서울특별시 관악구 신림로 315, 5층 (신림동)",안녕정신건강의학과의원,37.48246779999999,126.9296176,02-6204-0102
,"서울특별시 강남구 압구정로 450, 6~7층 (청담동)",르로제의원,37.5259039,127.0459661,02-543-9053
서울특별시 서초구 서초동 1318-8 몬테소리,"서울특별시 서초구 강남대로 399, 몬테소리 2,4,5층 (서초동)",온리프성형외과의원,37.49827630000001,127.026863,02-1833-8171
서울특별시 강남구 신사동 629-38,"서울특별시 강남구 도산대로37길 6, 2층 (신사동)",닥터송포유의원,37.5214168,127.0316876,02-517-3309
서울특별시 중랑구 망우동 487-16,"서울특별시 중랑구 망우로 421, 5층 (망우동)",글로리치과교정과치과의원,37.5998032,127.0988664,02-6325-2828
서울특별시 노원구 상계동 72-8,"서울특별시 노원구 덕릉로126길 2, 102호 (상계동)",상계우리치과의원,37.6701771,127.0813984,02-930-0007
서울특별시 강북구 미아동 773번지 10호 2층,"서울특별시 강북구 솔매로 80, 2층 (미아동)",김성학이비인후과의원,37.6248201,127.0210735,02-985-1582
,"서울특별시 영등포구 양평로 24, 3층 (당산동6가)",키즈웰소아치과의원,37.5332324,126.90378,02-2634-7522
서울특별시 강남구 삼성동 117 쌍용 플래티넘 205호,"서울특별시 강남구 봉은사로 474, 205호 (삼성동, 쌍용 플래티넘)",정화한의원,37.5123174,127.0518299,02-568-3118
서울특별시 마포구 신공덕동 15번지 19호 우대매디칼 2층,서울특별시 마포구 만리재로 27 (신공덕동),고은가정의학과의원,37.5437542,126.9531826,02-714-8275
서울특별시 서초구 잠원동 21-5,"서울특별시 서초구 강남대로97길 10, 2층 (잠원동)",어려진의원,37.5141421,127.0176813,0507-1334-6088
,"서울특별시 노원구 동일로 1380, 상계동 국민은행 4층 (상계동)",삼성편한내과의원,37.6517461,127.0616573,02-934-7500
서울특별시 영등포구 여의도동 44번지 14호 경도빌딩 208호,"서울특별시 영등포구 여의대방로 383, 208호 (여의도동, 경도빌딩)",여의도삼성정신건강의학과의원,37.5193784,126.9314564,02-780-1593
서울특별시 중랑구 상봉동 99번지 9호 5층,"서울특별시 중랑구 망우로 319, 5층 (상봉동)",자연과한의원 상봉점,37.5972421,127.0877271,02-435-2008
,"서울특별시 강남구 테헤란로 403, 리치타워 403호 (삼성동)",더나은한의원,37.5051138,127.049552,02-568-7585
서울특별시 동대문구 청량리동 743-2,"서울특별시 동대문구 홍릉로 5, 1,4층 (청량리동)",청량리손한의원,37.5808874,127.044773,02-6952-8276
,"서울특별시 강동구 구천면로 664, 2층 201호 (상일동)",더공감치과의원,37.549992,127.1710947,02-441-7528
서울특별시 성동구 성수동2가 300-1 삼진빌딩,"서울특별시 성동구 아차산로 113, 삼진빌딩 401호 (성수동2가)",피어라산부인과의원,37.5446106,127.0569599,02-498-8777
"서울특별시 서초구 서초동 1305번지 서산빌딩, 6층","서울특별시 서초구 강남대로 441, 서산빌딩 6층 (서초동)",리스펙성형외과의원,37.5017073,127.0251797,02-532-0888
서울특별시 서초구 반포동 0 원베일리 스퀘어,"서울특별시 서초구 반포대로 291, 원베일리 스퀘어 5층 507~510호 (반포동)",블레싱피부과의원,37.4955764,127.0056948,02-6739-6000
서울특별시 도봉구 창동 1-28 씨드큐브 창동,"서울특별시 도봉구 마들로13길 61, 씨드큐브 창동 5층 501-3~5호 (창동)",삼성온아이비인후과의원,37.6528023,127.048816,02-6225-2575
,"서울특별시 동대문구 사가정로 80, 답십리 뉴타운 카운티 에비뉴 310, 311호 (답십리동)",답십리경희한의원,37.5752453,127.0549757,02-3394-7942
,서울특별시 양천구 남부순환로40길 7 (신월동),유승오한의원,37.534899,126.8281949,02-2690-7787
서울특별시 강서구 염창동 280-21,"서울특별시 강서구 공항대로69길 18, 2,3층 (염창동)",중앙혈액검사센터 헌혈의원,37.5484922,126.8713259,02-2657-0011
"서울특별시 강남구 신사동 579번지 카로시티2 빌딩 304,405,406,407호","서울특별시 강남구 압구정로 156 (신사동, 카로시티2 빌딩 304,405,406,407호)",노종훈성형외과의원,37.5259715,127.026812,02-515-5300
서울특별시 강서구 마곡동 760-1 힐스테이트에코마곡나루역라마다앙코르서울,"서울특별시 강서구 마곡중앙로 161-11, 힐스테이트에코마곡나루역라마다앙코르서울 2층 209호, 211~213호 (마곡동)",마곡나루본튼튼의원,37.5678585,126.8267335,02-3662-8689
서울특별시 노원구 상계동 1132-59 제성빌딩,"서울특별시 노원구 동일로 1677, 제성빌딩 4,8,9층 (상계동)",서울오케이신경외과의원,37.6781915,127.0549414,02-3391-1100
서울특별시 영등포구 대림동 783번지 2호 대림동근생빌딩,"서울특별시 영등포구 대림로 245, 대림동근생빌딩 1층 (대림동)",연세행복한가정의학과의원,37.5022802,126.8963702,02-835-5411
,"서울특별시 은평구 통일로 855-8, 연신내진원와이타운 2층 201, 202호 (갈현동)",속튼튼내과의원,37.6190571,126.9201953,02-356-8055
서울특별시 중구 충무로5가 52-25 충무로필한의원,"서울특별시 중구 퇴계로 244, 5,7층 (충무로5가)",서울제일마취통증의학과의원,37.5628465,126.9996461,02-2277-9119
서울특별시 서초구 반포동 723-1 도충빌딩,"서울특별시 서초구 강남대로 519, 도충빌딩 7층 (반포동)",마인드성형외과의원,37.5083306,127.0220689,02-542-1006
서울특별시 강북구 미아동 207번지 17호,"서울특별시 강북구 도봉로 209 (미아동, 성은빌딩)",류의원,37.627258,127.0254793,02-986-7582
서울특별시 마포구 노고산동 57-12 태영빌딩 8층,"서울특별시 마포구 신촌로 88, 태영빌딩 8층 (노고산동)",율산부인과의원,37.555372,126.9353654,02-6325-2875
,서울특별시 강북구 한천로 1152 (수유동),북부성모의원,37.6469657,127.0174053,02-999-7171
서울특별시 강서구 마곡동 793-8 마곡하이마루,"서울특별시 강서구 강서로 399, 마곡하이마루 101~104,201~208호 (마곡동)",데이뷰의원 강서발산점,37.5612971,126.838677,02-3665-0399
서울특별시 동대문구 전농동 648번지 1호 3층,"서울특별시 동대문구 서울시립대로 50, 3층 (전농동)",디엠치과의원,37.5756915,127.0475978,02-2213-2875
서울특별시 은평구 대조동 89-276,"서울특별시 은평구 역말로 110, 1층 (대조동)",청담세브란스치과의원,37.6090486,126.9210551,02-355-2875
,"서울특별시 노원구 한글비석로 383, 1층 200호 (중계동, 삼창타워프라자)",엠에스안과의원,37.6589686,127.0726596,02-6677-1001
서울특별시 중구 을지로4가 71-2 일신빌딩,"서울특별시 중구 을지로 177, 일신빌딩 2층 (을지로4가)",리더스365비뇨의학과의원 을지로점,37.5668956,126.9975433,
서울특별시 강남구 역삼동 705 정다운빌딩,"서울특별시 강남구 테헤란로51길 10, 정다운빌딩 5층 502호 (역삼동)",연세조이정신건강의학과의원,37.5047612,127.0469874,02-6951-0757
서울특별시 구로구 고척동 351 고척아이파크 B동 202호,"서울특별시 구로구 경인로43길 49, B동 202호 (고척동, 고척아이파크)",퍼스트치과의원,37.50819970000001,126.8572215,02-3666-2828
서울특별시 중랑구 중화동 304번지 67호 대원메디컬빌딩,"서울특별시 중랑구 중랑역로 90, 대원메디컬빌딩 (중화동)",주정형외과의원,37.6013467,127.0780199,02-437-7581
서울특별시 송파구 가락동 166-2 에스케이허브파크,"서울특별시 송파구 오금로 396, 2층 205호 (가락동, 에스케이허브파크)",서울롱치과교정과치과의원,37.4979733,127.1342583,02-6954-2788
서울특별시 관악구 봉천동 852-2 서호빌딩,"서울특별시 관악구 봉천로 488, 서호빌딩 2층 (봉천동)",관악정내과의원,37.481462,126.9538922,02-3285-5526
"서울특별시 양천구 신정동 1191-11 1층 일부, 2층","서울특별시 양천구 신월로 280, 1층 일부, 2층 (신정동)",더건강한365의원,37.5211757,126.8517925,02-2603-3650
서울특별시 강남구 역삼동 820-8 YBM강남센터 1302호,"서울특별시 강남구 강남대로 408, YBM강남센터 1302호 (역삼동)",고운하지흉부외과의원,37.499175,127.0274801,
서울특별시 강남구 삼성동 158-12 서영빌딩 1101호,"서울특별시 강남구 테헤란로87길 13, 서영빌딩 11층 1101호 (삼성동)",서울생생정형외과의원,37.5086379,127.0586148,02-6203-2450
서울특별시 강북구 번동 446번지 12호,"서울특별시 강북구 도봉로 324, 11층 (번동, 글로리타워)",서울의원,37.6367756,127.024897,02-997-4890~1
서울특별시 강남구 개포동 189 개포자이 프레지던스,"서울특별시 강남구 삼성로 14, 205호 (개포동, 개포자이 프레지던스)",서울윙크치과의원,37.48553709999999,127.0714351,02-6739-2000
서울특별시 서초구 반포동 94-3,"서울특별시 서초구 서래로 49, B1,1,2,5,6층 (반포동)",이을성형외과의원,37.497323,126.9982521,02-596-0102
서울특별시 강북구 미아동 701-1,"서울특별시 강북구 솔샘로 239, 3층 (미아동)",강원석내과의원,37.6201114,127.0194369,02-980-9922
,서울특별시 중랑구 면목로37길 6 (면목동),예가한의원,37.5791082,127.08614,02-493-5225
서울특별시 강남구 청담동 6 백영청담빌딩 3층,"서울특별시 강남구 도산대로 456, 백영청담빌딩 3층 (청담동)",유앤정피부과의원,37.523749,127.0465456,514-0203
서울특별시 송파구 잠실동 184번지 2호 신원빌딩,"서울특별시 송파구 올림픽로 116-1, 신원빌딩 5층 (잠실동)",지음정신건강의학과의원,37.51139879999999,127.0836318,02-421-1136
서울특별시 강북구 번3동 307번지,서울특별시 강북구 오현로32길 4-3 (번동),홍설유내과의원,37.6284362,127.0398565,02-981-2600
서울특별시 강북구 미아동 61번지 81호,서울특별시 강북구 도봉로 53 (미아동),조이비인후과의원,37.6150948,127.0298314,02-981-3219
,"서울특별시 송파구 올림픽로 145, 3층 (잠실동, 리센츠)",자윤한의원잠실점,37.5140313,127.0882363,02-424-1075
서울특별시 노원구 중계동 359-11 성모빌딩,"서울특별시 노원구 한글비석로 263, 성모빌딩 2층 201호 (중계동)",중계넘버원정형외과의원,37.6512178,127.0764633,
서울특별시 영등포구 대림동 700번지 대림스타빌딩,"서울특별시 영등포구 도림로48길 4, 대림스타빌딩 2,3층 (대림동)",골든정형외과의원,37.49496140000001,126.900646,834-8899
,"서울특별시 강서구 강서로16길 1, 2층 (화곡동)",다온미소치과의원,37.5326566,126.8464875,02-6737-2828
"서울특별시 금천구 시흥동 841-55 2,3층","서울특별시 금천구 금하로 651, 2,3층 (시흥동)",김홍열내과의원,37.454071,126.903332,805-6124
서울특별시 강남구 논현동 18 미혜빌딩,"서울특별시 강남구 강남대로 590, 미혜빌딩 5층 (논현동)",윌비성형외과의원,37.5145406,127.0203983,02-517-7700
서울특별시 노원구 상계동 1132-144 수락프라자,"서울특별시 노원구 동일로 1669, 수락프라자 6층 (상계동)",참바른마취통증의학과의원,37.6774752,127.0548561,02-6958-8875
서울특별시 서초구 잠원동 37-7 성한빌딩,"서울특별시 서초구 강남대로 557, 성한빌딩 8층 (잠원동)",물방울성형외과의원,37.5115825,127.020595,02-511-7333
서울특별시 동작구 상도1동 666번지 1호 2층,"서울특별시 동작구 양녕로 268, 2층 (상도1동)",상도사랑가정의학과의원,37.5034901,126.9488454,02-822-9911
,"서울특별시 강서구 양천로 490, 401, 501호 (등촌동)",가양삼성정형외과의원,37.5575223,126.8559611,02-2668-9934
서울특별시 강남구 역삼동 765-2 백림빌딩,"서울특별시 강남구 선릉로63길 9, 백림빌딩 2층 (역삼동)",센텀메디의원,37.4971227,127.0514407,552-0700
"서울특별시 서초구 반포동 18번지 3호 래미안퍼스티지중심상가309,310,311호일부","서울특별시 서초구 반포대로 287, 309,310,311호 (반포동, 래미안퍼스티지중심상가)",키움성장의원,37.5044951,127.0007548,02-532-8575
서울특별시 은평구 응암동 61번지 6호 2층,"서울특별시 은평구 은평로 226, 2층 (응암동)",우리가정의원,37.6009061,126.932652,02-383-0502
서울특별시 강남구 도곡동 168 에스케이리더스뷰,"서울특별시 강남구 언주로 201, 에스케이리더스뷰 209호 (도곡동)",소은희마인드피아의원,37.48814,127.0487557,3463-3505
서울특별시 강북구 미아동 460번지 108호,서울특별시 강북구 도봉로 79 (미아동),명동안과의원,37.6162729,127.0295451,02-989-9284
,"서울특별시 송파구 올림픽로 435 (신천동, 파크리오B상가 307호)",한사랑의원,37.5205362,127.1061511,02-423-5334
서울특별시 서초구 잠원동 25-24,"서울특별시 서초구 강남대로95길 38, 2~5층 (잠원동)",미즈러브여성비뇨의학과의원,37.5134929,127.0179087,02-3447-6363
,"서울특별시 송파구 올림픽로 116, 메디씨티 빌딩 2,3층 (잠실동)",서울통정형외과의원,37.511405,127.0834685,02-6956-2158
,서울특별시 도봉구 도봉로 693 (방학동),동양당한의원,37.663848,127.0350784,02-3492-0102
서울특별시 강서구 방화동 829-3 강서농협,"서울특별시 강서구 금낭화로 127, 강서농협 5층 502호 (방화동)",스마트365의원,37.5766198,126.8121414,02-2662-5556
서울특별시 강남구 신사동 638-13 쌍봉빌딩,"서울특별시 강남구 언주로 874, 쌍봉빌딩 3층 일부 (신사동)",압구정연세안과의원,37.5285405,127.0340485,02-517-8686
서울특별시 서초구 서초동 1309-9 에이프로 스퀘어,"서울특별시 서초구 서초대로77길 55, 에이프로 스퀘어 2층 (서초동)",쁨글로벌의원,37.5020587,127.0246728,
서울특별시 강동구 명일동 353-1 미래빌딩,"서울특별시 강동구 양재대로 1570, 미래빌딩 3층 (명일동)",서울제통마취통증의학과의원,37.5456592,127.1432581,02-429-9222
서울특별시 송파구 신천동 7번지 25호,"서울특별시 송파구 송파대로 558, 202호 (신천동, 월드타워빌딩)",로담한의원,37.51504329999999,127.0997091,02-6929-3655
"서울특별시 용산구 한강로3가 98 제몰동 2층 2066~2069,2073-2호","서울특별시 용산구 서빙고로 17, 몰동 2층 2066,2067,2068,2069,2073-2호 (한강로3가)",언제나365의원,37.5258963,126.9676579,02-3785-1190
서울특별시 중구 명동1가 59-5 타임워크명동빌딩,"서울특별시 중구 남대문로 78, 타임워크명동빌딩 3층 301호 (명동1가)",유앤아이의원명동점,37.5641453,126.9829504,
서울특별시 서초구 잠원동 65번지 32호 3층,"서울특별시 서초구 잠원로 94, 3층 (잠원동, 한신상가)",문상은피부과의원,37.5124489,127.0078967,595-0700
,"서울특별시 동대문구 사가정로 148, 202~204호 (전농동)",다솜누리경희한의원,37.5766417,127.060466,02-2217-1075
서울특별시 강남구 역삼동 601-18 은성빌딩,"서울특별시 강남구 봉은사로 116, 은성빌딩 2층 (역삼동)",디마레의원,37.5046841,127.0264266,02-511-4414
서울특별시 동작구 사당동 147-53 골든시네마타워 402호,"서울특별시 동작구 동작대로 89, 골든시네마타워 402호 (사당동)",미소치과의원,37.4847606,126.9815207,02-532-4396
서울특별시 강남구 도곡동 957-14 하늘빌딩,"서울특별시 강남구 남부순환로 2609, 하늘빌딩 5층 (도곡동)",양재오라클피부과의원,37.4849347,127.0351052,0507-1316-4700
서울특별시 서초구 방배동 2999,"서울특별시 서초구 서초대로 6, 미송타워 4층 (방배동)",이나영피부과의원,37.4851928,126.9829924,02-593-8889
,"서울특별시 송파구 백제고분로 264, 2층 (삼전동, 호수빌딩)",리드치과의원,37.5062943,127.0969874,416-5047
서울특별시 마포구 동교동 159-5 케이스퀘어,"서울특별시 마포구 양화로 161, 케이스퀘어 4층 (동교동)",블리비의원,37.5569581,126.9232932,1833-2141
서울특별시 영등포구 신길동 424-3,"서울특별시 영등포구 신풍로 23, 3층 (신길동)",신풍바른재활의학과의원,37.5003465,126.9084386,02-831-8288
서울특별시 강남구 역삼동 735-32 쓰리엠타워,"서울특별시 강남구 테헤란로20길 10, 쓰리엠타워 4층 (역삼동)",엔슬림의원,37.49908509999999,127.0341478,02-6402-4500
서울특별시 송파구 마천동 32번지 2호(301호),"서울특별시 송파구 마천로 240, 301호 (마천동)",상생의터한의원,37.4951295,127.1537751,02-430-7575
서울특별시 강서구 화곡동 1007번지 1호 창건빌딩,"서울특별시 강서구 강서로45길 17, 창건빌딩 3층 (화곡동)",한양재활의학과의원,37.5477969,126.8351969,02-2604-9449
서울특별시 서초구 반포동 52-1 쌍동빌딩,"서울특별시 서초구 고무래로 26, 쌍동빌딩 4층 (반포동)",반포아산이비인후과의원,37.5023326,127.0111857,02-533-8275
서울특별시 양천구 신정동 900번지 10호 2층,"서울특별시 양천구 목동로 203, 2층 (신정동)",사람사랑치과의원,37.5267287,126.8638048,02-2605-2275
,서울특별시 강서구 까치산로 169 (화곡동),이가경희한의원,37.5524178,126.8529794,02-2601-7577
서울특별시 강남구 신사동 501-2 BIO,"서울특별시 강남구 도산대로 107, BIO 19층 (신사동)",뷰티바성형외과의원,37.5167698,127.0200738,02-535-5335
서울특별시 중랑구 면목동 633-5,"서울특별시 중랑구 면목로 299, 5층 (면목동)",모연산부인과의원,37.5792267,127.0866745,02-6398-1204
서울특별시 서초구 서초동 1318-2 통영빌딩,"서울특별시 서초구 강남대로 405, 통영빌딩 3층 (서초동)",뉴엔치과의원,37.4987358,127.0266779,02-534-2755
서울특별시 영등포구 대림동 709번지 4호 이충호산부인과,"서울특별시 영등포구 대림로 153, 이충호산부인과 2층 (대림동)",홍제한의원,37.4944144,126.899838,02-834-1075
서울특별시 관악구 봉천동 926-33,"서울특별시 관악구 남부순환로 1733, 6층 (봉천동)",서울모두신경과의원,37.4825912,126.9427599,070-4148-3663
서울특별시 서초구 잠원동 37-6 CK빌딩(씨케이빌딩),"서울특별시 서초구 강남대로 559, CK빌딩(씨케이빌딩) 7층 (잠원동)",강남성모비뇨의학과의원,37.5117753,127.0205383,
서울특별시 강동구 명일동 46번지,"서울특별시 강동구 고덕로 254 (명일동, 이화빌딩)",하늘호수피부과의원,37.5546134,127.1536615,02-481-3555
서울특별시 양천구 신정동 323-12 양지빌딩 ll,"서울특별시 양천구 목동동로 73, 양지빌딩 ll 5층 501호 (신정동)",목동탑치과의원,37.5157831,126.8628358,02-2061-3360
서울특별시 서대문구 홍은동 427번지 3호,"서울특별시 서대문구 연희로 276, 2층 (홍은동)",동신비뇨기과의원,37.5816919,126.9366122,02-394-0708
서울특별시 강남구 신사동 638-13 쌍봉빌딩,"서울특별시 강남구 언주로 874, 쌍봉빌딩 7층 (신사동)",김현수내과의원,37.5285405,127.0340485,511-1101
서울특별시 마포구 대흥동 272번지 2호,"서울특별시 마포구 백범로 90, 6층 (대흥동)",연합메디의원,37.5478363,126.9415177,02-716-5883
서울특별시 동작구 사당동 147-29 이수자이,"서울특별시 동작구 사당로 300, 2층 201,202,203,206,207호 (사당동, 이수자이)",더니버스성형외과의원,37.4844319,126.9804651,02-517-9227
"서울특별시 은평구 역촌동 85번지 12호 (센타폴리스 206,207호)","서울특별시 은평구 연서로 9, 206호, 207호 (역촌동, 센타플리스)",영진정형외과의원,37.60508799999999,126.9080677,02-359-2770
서울특별시 강남구 청담동 91 승원빌딩 5층,"서울특별시 강남구 도산대로57길 8, 승원빌딩 5층 (청담동)",라셀라웰즈의원,37.5241419,127.0414176,02-547-4546
서울특별시 중랑구 상봉동 102-57 상봉타워,"서울특별시 중랑구 면목로 490, 3,4층 (상봉동, 상봉타워)",오킴스피부과의원,37.5956293,127.0860376,02-439-7524
,서울특별시 강동구 구천면로 229-1 (천호동),손철호재활의학과의원,37.5474197,127.1376799,02-482-8875
,"서울특별시 종로구 세종대로 159, 7층 (세종로, 세광빌딩)",옥토한의원,37.5706016,126.9763539,02-333-8575
서울특별시 관악구 봉천동 1564번지 3호,"서울특별시 관악구 쑥고개로 73, 301호 (봉천동)",으뜸한의원,37.4796203,126.9446054,02-878-2191
서울특별시 동대문구 제기동 652-2,"서울특별시 동대문구 왕산로 171, 5층 (제기동)",단아치과의원,37.5794974,127.0420863,02-2269-2872
서울특별시 노원구 상계동 731번지 3호,"서울특별시 노원구 동일로 1401, 4층 (상계동)",노원방사선과의원,37.6535647,127.0603379,952-8733
서울특별시 강남구 개포동 189 개포자이 프레지던스 410호,"서울특별시 강남구 삼성로 14, 4층 410호 (개포동, 개포자이 프레지던스)",연세개포재활의학과의원,37.48553709999999,127.0714351,02-445-8875
서울특별시 구로구 구로동 731-1 기산빅프라자 601호,"서울특별시 구로구 구로동로26길 8, 기산빅프라자 601호 (구로동)",서울명치과의원,37.4903128,126.8847377,02-864-7528
서울특별시 강서구 화곡동 341번지 65호,"서울특별시 강서구 강서로 52, 3층 301호 (화곡동, 화곡판타지아)",소생한의원,37.5324848,126.8466943,02-2606-7510
서울특별시 서초구 서초동 1670번지 9호 은빛고시원,"서울특별시 서초구 서초중앙로22길 45, 3층 (서초동)",여성미한의원,37.49355430000001,127.016451,02-545-0072
서울특별시 종로구 종로1가 24 르메이에르종로타운1,"서울특별시 종로구 종로 19, 르메이에르종로타운1 202-2~202-4호 (종로1가)",위드산부인과의원,37.5709593,126.9798759,02-722-5001
서울특별시 강서구 방화동 450번지 15호,"서울특별시 강서구 양천로 73, 204호 (방화동)",달리자한의원,37.5693395,126.8218966,02-2661-8275
서울특별시 마포구 상수동 329번지 12호,"서울특별시 마포구 독막로 92, 3층 (상수동, 공감빌딩)",온맘한의원,37.5473892,126.9236878,02-333-9322
서울특별시 강남구 역삼동 754-2 도곡프라자,"서울특별시 강남구 역삼로52길 14, 도곡프라자 209~11호 (역삼동)",우리들윤치과의원,37.4985291,127.0479489,02-6409-2875
서울특별시 강서구 등촌동 14-7 가양역 데시앙플렉스 지식산업센터,"서울특별시 강서구 양천로 424, 가양역 데시앙플렉스 지식산업센터 227,236~240호 (등촌동)",365봄연합의원,37.564384,126.8482575,02-2054-6717
,서울특별시 서대문구 연희로26길 10 (연희동),인용한의원,37.5728036,126.9361713,02-337-5021
"서울특별시 강동구 천호동 427번지 3호 203,205,206호","서울특별시 강동구 올림픽로 660 (천호동, 203,205,206호)",아산수내과의원,37.5401616,127.1245175,02-476-7114
"서울특별시 성북구 동소문동6가 130번지 4층 전체, 삼경빌딩","서울특별시 성북구 동소문로 97, 4층 (동소문동6가)",돈암고운세상피부과의원,37.5889841,127.007648,926-1007
서울특별시 강동구 명일동 47번지 12호,서울특별시 강동구 동남로73길 26 (명일동),이지치과의원,37.5547317,127.1473877,02-428-7528
서울특별시 강남구 개포동 167-9,"서울특별시 강남구 선릉로 34, 5층 (개포동)",청담이안재활의학과의원,37.4802905,127.0626272,02-579-1579
서울특별시 구로구 신도림동 337 신도림1차푸르지오 213호,"서울특별시 구로구 경인로 661, 신도림1차푸르지오 213호 (신도림동)",유로진비뇨의학과의원,37.5093957,126.8877258,02-981-0488
서울특별시 은평구 진관동 100 은평헤스티아,"서울특별시 은평구 통일로 1030, 은평헤스티아 2층 201,202호 (진관동)",은평등대신경과의원,37.6337404,126.9178434,02-6956-7300
서울특별시 노원구 월계동 18번지 그랑빌아파트제주상가동 204호,"서울특별시 노원구 마들로 31, 204호 (월계동, 그랑빌@제주상가동)",맑고밝은이비인후과의원,37.6178025,127.0685682,975-3308
,"서울특별시 동작구 성대로1길 9, 2층 (상도동)",신우재한의원,37.5007532,126.9330058,02-815-8159
서울특별시 서초구 반포동 54-1 쌍동빌딩 서관,"서울특별시 서초구 고무래로 22, 쌍동빌딩 서관 2층 (반포동)",경희나라한의원,37.5025115,127.0107221,02-596-2075
,서울특별시 양천구 목동중앙북로 67 (목동),양천한의원,37.5469576,126.8709157,-2654-2184
서울특별시 중랑구 면목동 103-6 봄작시티 201,"서울특별시 중랑구 겸재로 201, 4층 (면목동, 봄작시티 201)",동천마취통증의학과의원,37.588073,127.0862569,02-6212-7942
"서울특별시 송파구 신천동 7번지 17호 한빛프라자,삼성웰리스아파트","서울특별시 송파구 송파대로 562, 4층 (신천동, 한빛프라자,삼성웰리스아파트)",잠실연세하와유외과의원,37.51533149999999,127.0995423,02-415-7001
서울특별시 양천구 목동 406번지 28호 목동 슬로우스퀘어 2층 206호~208호,"서울특별시 양천구 오목로 345, 목동 슬로우스퀘어 2층 206~208호 (목동)",원스의원,37.52489509999999,126.8758038,02-6949-2091
서울특별시 서초구 서초동 1317-20 아라타워,"서울특별시 서초구 서초대로77길 3, 아라타워 14층 (서초동)",노블스여성의원,37.4979437,127.0265374,02-554-3603
서울특별시 금천구 시흥동 883번지 11호 금천리메인시티,"서울특별시 금천구 시흥대로 224, 금천리메인시티 503,504,505,508호 (시흥동)",김안과의원,37.453905,126.9013689,02-893-4796
서울특별시 강서구 가양동 1480-8 주영빌딩,"서울특별시 강서구 양천로 461, 주영빌딩 2층 201호 (가양동)",서울힘내과의원,37.5630377,126.8522455,02-2659-5575
서울특별시 노원구 상계동 649-3 세일빌딩,"서울특별시 노원구 동일로 1548, 세일빌딩 2층 (상계동)",마들바로본마취통증의학과의원,37.6666733,127.0576485,02-939-3333
,"서울특별시 강서구 금낭화로 136, 219-221호 (방화동, 에어뷰21-2오피스텔)",양천한의원,37.5773601,126.8129846,02-2666-2184
서울특별시 강서구 등촌동 674,"서울특별시 강서구 강서로 380, 2층 (등촌동)",오빛나의원,37.5594626,126.8389133,02-6951-3251
서울특별시 강서구 마곡동 801,"서울특별시 강서구 공항대로 236, 4층 (마곡동)",자연샘의원,37.5585421,126.8336917,02-6953-6753
,"서울특별시 성북구 돌곶이로8길 5, 2층 (석관동)",신라한의원,37.6070404,127.0615055,02-962-3264
서울특별시 양천구 목동 514번지 4호,"서울특별시 양천구 공항대로 626, 2층 (목동)",오늘편한치과의원,37.5465718,126.8742591,2651-2875
서울특별시 금천구 시흥동 991 아람아이씨티타워 301-3호,"서울특별시 금천구 시흥대로 193, 아람아이씨티타워 301-305호 (시흥동)",참편한내과의원,37.4510017,126.9013796,02-805-8575
서울특별시 양천구 신월동 536-3 도이치빌딩,"서울특별시 양천구 신월로 177, 도이치빌딩 2층 (신월동)",서울드림내과의원,37.5190683,126.8427895,02-2601-8275
서울특별시 송파구 거여동 43-3,"서울특별시 송파구 거마로 28, 301호 (거여동)",아산선가정의학과의원,37.4880261,127.1387656,02-400-7582
서울특별시 강남구 개포동 167-9 8층,"서울특별시 강남구 선릉로 34, 8층 (개포동)",삼성퍼스티어산부인과의원,37.4802905,127.0626272,02-6239-5000
"서울특별시 강남구 논현동 183번지 부경빌딩,  5층","서울특별시 강남구 강남대로118길 12, 부경빌딩 5층 (논현동)",365코이의원,37.506317,127.0247442,02-540-0442
서울특별시 광진구 자양동 580-13,"서울특별시 광진구 뚝섬로 587, 4층 (자양동)",모아재활의학과소아청소년과의원,37.5335228,127.0754315,02-6959-7075
"서울특별시 강남구 개포동 13-3 대청타워 234,234-1호","서울특별시 강남구 개포로 623, 대청타워 234,234-1호 (개포동)",개포민마취통증의학과의원,37.4943476,127.079616,02-451-7588
서울특별시 서초구 서초동 1623번지 12호 블루타워 3층,"서울특별시 서초구 서초중앙로 56, 3층 (서초동, 블루타워 )",연세윤앤진치과의원,37.4868706,127.0154068,3487-2080
서울특별시 관악구 봉천동 853번지 4호 8층,"서울특별시 관악구 남부순환로 1832-0, 8층 (봉천동, 삼한빌딩)",서울비뇨기과의원,37.4807165,126.9534999,02-875-8275
,서울특별시 구로구 중앙로8길 10-17 (고척동),한일한의원,37.5019308,126.8643973,02-2612-2294
서울특별시 서초구 서초동 1305 서산빌딩,"서울특별시 서초구 강남대로 441, 서산빌딩 6층 (서초동)",엣지라인의원,37.5017073,127.0251797,02-2135-8299
서울특별시 노원구 공릉동 223-12,"서울특별시 노원구 공릉로 176, 2,3층 (공릉동)",속편해진내과의원,37.6256451,127.0800739,02-971-7582
서울특별시 강남구 역삼동 825번지 8호 8258빌딩 12층,"서울특별시 강남구 강남대로 376, 12층 (역삼동, 8258빌딩)",서울엔비뇨기과의원,37.4965166,127.0287049,02-553-8258
서울특별시 서대문구 남가좌동 295-10,"서울특별시 서대문구 수색로 40, 6층 (남가좌동)",아이언어발달의원,37.5700305,126.9143878,02-372-1275
서울특별시 중랑구 상봉동 136번지 1호,"서울특별시 중랑구 망우로 192, 2층 (상봉동)",아름미소치과의원,37.59315650000001,127.0740931,02-6212-7575
,"서울특별시 영등포구 영중로 12, 에쉐르아이 시네마 쇼핑몰 8층 (영등포동3가)",영등포톡스앤필의원,37.5182625,126.9078988,02-2068-6075
서울특별시 동작구 상도1동 394번지 2층,"서울특별시 동작구 상도로 301, 2층 (상도1동, 의암빌딩)",상도밝은안과의원,37.50098560000001,126.9499091,02-812-2375
,"서울특별시 은평구 연서로 275, 1층 (불광동)",연신내경희한의원,37.6209394,126.9248598,02-353-0010
서울특별시 양천구 신정동 1190-4 7층,"서울특별시 양천구 중앙로 275, 7층 (신정동)",한양류마미소내과의원,37.5207925,126.8522747,02-6120-1500
"서울특별시 서초구 서초동 1305번지 서산빌딩 6,7,8층","서울특별시 서초구 강남대로 441, 6,7,8층 (서초동, 서산빌딩)",별성형외과의원,37.5017073,127.0251797,1833-8898
서울특별시 마포구 아현동 330-5 가동 201호일부,"서울특별시 마포구 신촌로 262, 가동 2층 201(일부)호 (아현동)",나해란정신건강의학과의원,37.5577706,126.9440849,02-365-8255
서울특별시 송파구 가락동 96-12 신흥빌딩,"서울특별시 송파구 송파대로 286, 신흥빌딩 1층 일부2칸호 (가락동)",가락한의원,37.4949193,127.1171937,02-409-2950
,"서울특별시 광진구 자양로9길 77, 2층 (자양동)",자양경희한의원,37.5317775,127.0812127,02-3425-1075
서울특별시 서대문구 냉천동 261번지 2호 서대문센트레빌 단지내상가 2층 204호,"서울특별시 서대문구 독립문로14길 3, 2층 204호 (냉천동, 서대문센트레빌 단지내상가  )",바른서울치과의원,37.5668386,126.963888,02-312-2804
서울특별시 마포구 합정동 473번지 마포 한강 2차 푸르지오,"서울특별시 마포구 월드컵로3길 14, 2층 214~216호 (합정동, 마포 한강 2차 푸르지오)",마포합정본정형외과의원,37.5510197,126.9118255,02-336-7553
,"서울특별시 강남구 강남대로 626, 엠아이타워빌딩 2층 (신사동)",경희보궁한의원,37.524346,127.023466,02-543-0025
,"서울특별시 강동구 구천면로 304, 3층 (천호동)",서울정형외과의원,37.5466824,127.1349233,02-473-7573
서울특별시 서초구 서초동 1673번지 2호 5층,"서울특별시 서초구 서초대로 304, 5층 (서초동)",지앤산부인과의원,37.4938062,127.0149336,584-2888
서울특별시 성동구 성수동1가 8-24,"서울특별시 성동구 상원1길 39, 5층 (성수동1가)",코웰치과의원,37.5470309,127.046911,02-552-2866
서울특별시 광진구 중곡동 115-12,"서울특별시 광진구 천호대로 653, 5층 (중곡동)",서울미니플란트치과의원,37.5528341,127.0896304,02-455-2080
서울특별시 서초구 방배동 1669 성산빌딩,"서울특별시 서초구 동작대로 120, 성산빌딩 6층 (방배동)",서리풀성모정형외과의원,37.48723469999999,126.9828062,02-592-8788
서울특별시 양천구 신월동 510-2 4층,"서울특별시 양천구 오목로 62, 4층 (신월동)",꽃소아청소년과의원,37.5223575,126.8444282,02-2135-1156
서울특별시 구로구 오류동 23번지 36호 은하수빌딩,"서울특별시 구로구 경인로19길 12, 은하수빌딩 1층 (오류동)",경희동의보감한의원,37.4963645,126.8428816,02-2615-8800
서울특별시 마포구 서교동 353번지 1호 서교타워 2층 202호,"서울특별시 마포구 양화로 133, 2층 202호 (서교동, 서교타워)",움튼산부인과의원,37.5553054,126.92098,02-322-2289
"서울특별시 강남구 개포동 12-4 석탑프라자 지하1층 B101,B103","서울특별시 강남구 개포로 615, 석탑프라자 지하1층 B101,B103호 (개포동)",개포삼성정형외과의원,37.4926193,127.0755689,02-6204-0275
서울특별시 구로구 오류동 137번지 8호 대성빌딩,"서울특별시 구로구 오류로8길 57, 대성빌딩 2층 (오류동)",바른정형외과의원,37.49243999999999,126.8433901,02-2060-0075
"서울특별시 강남구 대치동 629번지 1호 4,5,6층","서울특별시 강남구 남부순환로397길 57, 4,5,6층 (대치동, 대치메디칼센터)",서울박내과의원,37.49307930000001,127.0583532,02-557-9570
서울특별시 영등포구 신길동 232번지 17호,"서울특별시 영등포구 신길로 166, 2층 (신길동)",신익순한의원,37.5070418,126.9112022,841-2008
서울특별시 서초구 잠원동 27-2,"서울특별시 서초구 강남대로 589, 14층 (잠원동)",클로버산부인과의원,37.5143873,127.01915,02-6402-3434
서울특별시 강남구 신사동 577-5 카로시티1 5층 503-506호,"서울특별시 강남구 논현로171길 15, 카로시티1 5층 503-506호 (신사동)",모나라피부과의원,37.5255134,127.0270724,02-6956-9115
서울특별시 서초구 서초동 1576-9,"서울특별시 서초구 서초대로46길 109, 1층 (서초동)",위튼한의원,37.4902276,127.013974,02-581-3325
,"서울특별시 금천구 독산로 135-1, 2층 (시흥동, 최이비인후과)",서울바른마음치과의원,37.4594885,126.904767,02-895-7522
서울특별시 강남구 신사동 610-1 진성빌딩,"서울특별시 강남구 논현로 874, 진성빌딩 301호 (신사동)",제이노블성형외과의원,37.5265256,127.0288274,02-543-3841
서울특별시 금천구 독산동 289번지 8호 7층,"서울특별시 금천구 시흥대로 403, 7층 (독산동)",두리이비인후과의원,37.469778,126.897619,02-862-1119
서울특별시 은평구 응암1동 98번지 65호,"서울특별시 은평구 은평로 136, 1,2층 (응암동)",한마음이비인후과의원,37.6002275,126.9230907,02-354-8275
,"서울특별시 강동구 양재대로 1473, 4층 (길동)",강동경희한의원,37.5375304,127.1395967,02-477-9999
,"서울특별시 강동구 상암로 44, 유정빌딩 2층 (천호동)",사랑의한의원,37.5496266,127.1282813,02-476-7557
,"서울특별시 성북구 화랑로 242, 동우빌딩 2층 (석관동)",일타한의원,37.6101068,127.0563532,02-2088-2789
서울특별시 동작구 신대방동 686번지,"서울특별시 동작구 대림로 61, 2층 (신대방동)",서울의료복지사회적협동조합우리네치과의원,37.48852979999999,126.9066345,02-849-2150
"서울특별시 종로구 종로5가 214번지 2호 , 214번지 1호 (2층)","서울특별시 종로구 종로 234-1, 2층 (종로5가)",서울삼성재활의학과의원,37.57075990000001,127.0037466,02-2278-1396
서울특별시 서초구 방배동 1549 방배동예다인프라자빌딩,"서울특별시 서초구 동작대로 118, 방배동예다인프라자빌딩 405,406호 (방배동)",연세베스트이비인후과의원,37.4869655,126.9827324,02-535-5877
서울특별시 강북구 수유동 95번지 5호,"서울특별시 강북구 도봉로 285, 1층 (수유동)",쾌청한의원,37.6339023,127.0230781,02-946-1075
,"서울특별시 서초구 신반포로 189, 4동 4층 (잠원동, 반포쇼핑)",코숨광제한의원,37.5065127,127.0047106,02-537-8884
서울특별시 서초구 서초동 1536번지 14호 서울빌딩 1층,"서울특별시 서초구 반포대로 67, 1층 (서초동, 서울빌딩)",서초한의원,37.4862883,127.009986,02-521-2434
서울특별시 서대문구 연희동 88번지 11호,"서울특별시 서대문구 연희로 128, 2층 (연희동)",신용필치과의원,37.5688649,126.9328546,02-335-1290
서울특별시 서초구 서초동 1303-31 리젠메디컬타워,"서울특별시 서초구 강남대로 463, 리젠메디컬타워 14층 (서초동)",코비쥬 의원,37.5034635,127.0244579,02-533-4555
서울특별시 양천구 신월동 509번지 2호,서울특별시 양천구 오목로 66 (신월동),신내과의원,37.5224542,126.8449174,02-2698-1414
서울특별시 은평구 대조동 6번지 5호 신흥빌딩,"서울특별시 은평구 통일로 741, 신흥빌딩 5층 (대조동)",박정신건강의학과의원,37.6113928,126.9285182,02-385-2319
서울특별시 강남구 논현동 4-1 대영빌딩,"서울특별시 강남구 도산대로 124, 대영빌딩 2,3층 (논현동)",피팅의원,37.51686309999999,127.0223722,02-549-9997
서울특별시 송파구 석촌동 283번지 8호,"서울특별시 송파구 송파대로43길 15, 3층 (석촌동)",삼족오한의원,37.5035447,127.1061567,02-421-7682
서울특별시 서초구 잠원동 72번지 2호,서울특별시 서초구 신반포로23길 30 (잠원동),조현이비인후과의원,37.5087874,127.0035738,534-1165
서울특별시 서초구 반포동 56번지 1호 강남빌딩,"서울특별시 서초구 서초중앙로 245, 강남빌딩 2층 (반포동)",아이들치과의원,37.5033532,127.0107932,02-591-2275
서울특별시 서초구 양재동 276-6 유로빌딩,"서울특별시 서초구 논현로 75, 유로빌딩 2층 (양재동)",양재온한의원,37.4766818,127.0452278,02-6082-5002
"서울특별시 강남구 신사동 513-1 동원빌딩 3,4층","서울특별시 강남구 도산대로 109, 동원빌딩 3,4층 (신사동)",밸런스랩성형외과의원,37.5168869,127.0204974,1661-8581
서울특별시 서대문구 홍제동 253-7,"서울특별시 서대문구 통일로 448, 8층 (홍제동)",서울하트내과의원,37.58889060000001,126.9444878,02-396-1175
서울특별시 강남구 청담동 132 풍양빌딩 2층,"서울특별시 강남구 영동대로 722, 풍양빌딩 2층 (청담동)",베르미의원,37.5224048,127.0564045,02-544-0225
서울특별시 강남구 논현동 164-1,"서울특별시 강남구 강남대로 518, 6층 (논현동)",스웨이성형외과의원,37.5084428,127.023085,02-547-1244
서울특별시 강동구 길동 252번지 3호,서울특별시 강동구 명일로 189 (길동),해인한의원,37.537822,127.1504209,02-478-8276
,"서울특별시 서대문구 신촌로 183, 3층 (대현동)",서울예봄치과의원,37.5570769,126.9464205,02-6351-2828
서울특별시 서대문구 홍제동 172-6,"서울특별시 서대문구 통일로 437-1, 1층 (홍제동)",참편한신경과의원,37.5879427,126.9447735,02-3217-3337
,"서울특별시 영등포구 영등포로 210, 2층 (영등포동4가)",으랏차정형외과의원,37.512709,126.9075096,02-2679-1180
서울특별시 강서구 내발산동 645-3 현웅빌딩,"서울특별시 강서구 공항대로 282, 현웅빌딩 2층 (내발산동)",예쁨주의쁨의원,37.5580915,126.8386969,02-3663-7789
서울특별시 중구 신당동 372-3 4층,"서울특별시 중구 동호로 171, 4층 (신당동)",365올케어치과의원,37.5534555,127.0113293,02-2232-2911
서울특별시 송파구 가락동 166-6 테라펠리체 송파,"서울특별시 송파구 동남로 240-6, 2층 201,202,203호 (가락동, 테라펠리체 송파)",송파삼성탑정형외과의원,37.4977253,127.133835,02-6285-1200
서울특별시 강남구 대치동 500 우성아파트상가,"서울특별시 강남구 남부순환로 2912, 우성아파트상가 3층 304호일부, 304-1호 (대치동)",이사벨라여성의원,37.4908388,127.0572409,02-555-0025
서울특별시 강북구 수유동 229번지 5호 8층,"서울특별시 강북구 도봉로 333, 8층 (수유동, 정우빌딩)",365항외과의원,37.6378691,127.0250254,02-900-0365
서울특별시 영등포구 신길동 103번지 9호 대윤메디컬센터,"서울특별시 영등포구 영등포로 358, 대윤메디컬센터 6층 (신길동)",대윤성형외과의원,37.514434,126.9179204,02-831-3022
"서울특별시 노원구 상계동 603번지 2호 A동 302,303,304호","서울특별시 노원구 상계로1길 14-11, A동 302,303,304호 (상계동)",늘새봄재활의학과의원,37.6570026,127.0618733,02-933-3875
서울특별시 구로구 고척동 50번지 71호 강산메디칼프라자,"서울특별시 구로구 중앙로 60, 강산메디칼프라자 402호 (고척동)",신통한마취통증의학과의원,37.5031332,126.8625831,02-2060-7300
서울특별시 서초구 서초동 1303-10 서초한일유앤아이주상복합,"서울특별시 서초구 사평대로56길 7, 213,214호 (서초동, 서초한일유앤아이주상복합)",조아성형외과의원,37.50316979999999,127.0234988,02-536-7707
서울특별시 성북구 삼선동1가 25 3층,"서울특별시 성북구 삼선교로 12, 3층 (삼선동1가)",김항중마취통증의학과의원,37.5875562,127.0071398,745-0930
서울특별시 서초구 방배동 1669번지 성산빌딩,"서울특별시 서초구 동작대로 120, 성산빌딩 8층 (방배동)",경희라라한의원,37.48723469999999,126.9828062,1588-7919
서울특별시 강남구 역삼동 769-7 동아빌딩,"서울특별시 강남구 역삼로 212, 동아빌딩 1층층 (역삼동)",스탠리바이오의원,37.4961279,127.0403265,
서울특별시 강남구 개포동 186-14 청우빌딩,"서울특별시 강남구 개포로 506, 청우빌딩 204호 (개포동)",경희영신한의원,37.4891361,127.067521,3411-1075
,"서울특별시 강남구 영동대로 722, 풍양빌딩 2층 (청담동)",베르미한의원,37.5224048,127.0564045,02-544-0225
"서울특별시 강남구 역삼동 681-17 숨빌딩 2,3,4층","서울특별시 강남구 봉은사로 310, 숨빌딩 2,3,4층 (역삼동)",숨수면의원,37.5091985,127.0409663,02-3416-0002
서울특별시 용산구 청파동2가 1-17 1층,"서울특별시 용산구 효창원로93길 2, 1층 (청파동2가)",이성화한의원,37.5485588,126.9633517,02-701-1075
,"서울특별시 송파구 올림픽로 435 (신천동, 파크리오상가 A동 310호)",온치과의원,37.5211214,127.1094588,02-420-2080
서울특별시 금천구 독산동 1038번지 27호,"서울특별시 금천구 독산로 210, 3층 (독산동)",금천연세내과의원,37.4657486,126.9023403,02-805-3330
서울특별시 중구 황학동 23,"서울특별시 중구 마장로9길 49-9, 1,2층 (황학동)",온여성의원,37.5703242,127.0187671,02-2233-7588
서울특별시 강서구 마곡동 798-2 류마타워,"서울특별시 강서구 공항대로 164, 류마타워 302,306층 307,308호 (마곡동)",에이스본정형외과의원,37.5592744,126.8255825,02-6953-7524
,"서울특별시 서초구 사임당로 180, 302호 (서초동, 보원빌딩)",연세이비인후과의원,37.4925111,127.0292999,02-3472-5050
서울특별시 마포구 공덕동 456번지 르네상스타워 3층,"서울특별시 마포구 만리재로 14, 3층 (공덕동, 르네상스타워빌딩)",공덕서울안과의원,37.5439983,126.952885,02-704-3088
,"서울특별시 서대문구 통일로 484, 유진상가, 유진아파트,공유캠퍼스 1층 (홍제동)",홍제경희한의원,37.5915033,126.9429722,02-394-3001
서울특별시 중랑구 상봉동 190번지 68호,"서울특별시 중랑구 상봉중앙로1길 32, 2층 (상봉동)",서울의원,37.5986175,127.0876116,02-438-5975
,서울특별시 강서구 화곡로 111 (화곡동),삼성정형외과의원,37.5402263,126.8342188,02-2694-0055
서울특별시 강남구 논현동 1번지 3호 렉스타워 11층,"서울특별시 강남구 도산대로 108 (논현동, 렉스타워 11층)",더스타치과의원,37.5162574,127.0206194,0507-1431-8888
서울특별시 노원구 상계동 717번지 1호 노원빌딩 601호,"서울특별시 노원구 노해로 501, 6층 601호 (상계동, 노원빌딩)",서울제니스치과의원,37.6552273,127.0635578,6959-2333
서울특별시 중구 무교동 45 더익스체인지서울몰,"서울특별시 중구 무교로 19, 더익스체인지서울몰 7층 (무교동)",정이안한의원,37.5678402,126.9787194,02-739-0075
,"서울특별시 마포구 양화로12길 24, 5층 (서교동, 선진빌딩)",발머스한의원,37.5517434,126.9184714,02-3144-4701
서울특별시 도봉구 방학동 720-33 도봉월드상가,"서울특별시 도봉구 마들로 650, 도봉월드상가 1층 105-3,4 106-3,4 112-2호 (방학동)",참서울내과의원,37.6680262,127.0470738,954-2100
서울특별시 송파구 문정동 150-29 동원빌딩,"서울특별시 송파구 송파대로27길 28, 동원빌딩 (문정동)",가락우리치과의원,37.491031,127.1161956,02-402-2828
서울특별시 강남구 논현동 66-24 파티오나인,"서울특별시 강남구 논현로 742, 파티오나인 8층 (논현동)",에이치에스의원,37.5182365,127.0292355,02-2088-7988
서울특별시 서초구 양재동 13-13,"서울특별시 서초구 강남대로34길 7, 2층 (양재동)",에스에이치의원,37.4835494,127.0384858,573-8262
서울특별시 서초구 반포동 736-17 청하빌딩,"서울특별시 서초구 강남대로 503, 청하빌딩 5,6층 (반포동)",차민성형외과의원,37.5068513,127.0228235,02-517-0120
,"서울특별시 양천구 중앙로 255, 2층 (신정동)",신정네거리한의원,37.5190516,126.8530433,02-2693-7553
서울특별시 중랑구 신내동 646 금강리빙스텔,"서울특별시 중랑구 신내로 211, 금강리빙스텔 2층 201,217호 (신내동)",신내탑마취통증의학과의원,37.6163253,127.0926776,02-3421-0066
서울특별시 강남구 논현동 92 SB타워,"서울특별시 강남구 도산대로 318, SB타워 5층 (논현동)",신우신경외과재활의학과의원,37.5220158,127.0363493,586-9090
서울특별시 관악구 봉천동 1656-15 정호진 아트힐,"서울특별시 관악구 남부순환로 1962, 정호진 아트힐 4층 (봉천동)",낙성대연세재활의학과의원,37.47562,126.9664501,02-888-7933
,"서울특별시 마포구 월드컵로13길 8, 2층,4층 (망원동)",늘바른한의원,37.5558761,126.9096217,02-336-8875
"서울특별시 양천구 신정동 907-14 이스트만빌딩, 3층, 4층","서울특별시 양천구 오목로 197, 이스트만빌딩 3, 4층 (신정동)",서울에이블이비인후과의원,37.5256612,126.8594069,02-2605-1116
,"서울특별시 동대문구 약령시로 18, 1층 (제기동, 정주빌딩)",안암한의원,37.5825229,127.0317993,02-922-1075
서울특별시 서초구 잠원동 37-1 페이토,"서울특별시 서초구 강남대로 563, 페이토 4층 (잠원동)",디엘 성형외과의원,37.51192169999999,127.0202844,02-515-1155
서울특별시 강남구 신사동 513번지 4호 2층,"서울특별시 강남구 도산대로 113, 2층 (신사동)",아이오유성형외과의원,37.5170116,127.0208479,549-0354
서울특별시 동작구 대방동 393번지 65호 202호,"서울특별시 동작구 상도로 69, 202호 (대방동, 상원빌딩)",경희다원한의원,37.499931,126.9283929,02-822-4575
,"서울특별시 강남구 강남대로 256, 2층 (도곡동, 대우양재디오빌)",우아성한의원,37.4864768,127.0335278,02-538-4425
,"서울특별시 관악구 난곡로 234, 1층 (신림동)",이당한의원,37.4751875,126.9170668,02-837-5677
서울특별시 중랑구 망우본동 489번지 1호 삼부빌딩 3층,"서울특별시 중랑구 망우로 403, 3층 (망우동, 삼부빌딩)",서울아산내과의원,37.5995554,127.096928,02-496-1199
서울특별시 서초구 서초동 1306-2 한승빌딩,"서울특별시 서초구 강남대로 423, 한승빌딩 901호 (서초동)",닥터탁성형외과의원,37.5002511,127.0258605,
,"서울특별시 구로구 경인로47다길 3, 2층 (고척동)",경희바른한의원,37.5036727,126.8639293,02-2066-0312
서울특별시 양천구 목동 650-1,"서울특별시 양천구 등촌로 188, 지하1층 제B01호, 제1층 제101호 (목동)",서영탁내과의원,37.5469402,126.9231218,02-6346-6163
서울특별시 강남구 신사동 576-6,"서울특별시 강남구 압구정로28길 24, 3층 (신사동)",제이피성형외과의원,37.5249985,127.0274835,02-544-9191
서울특별시 양천구 목동 907번지 4호 우성에펠타운 3층,"서울특별시 양천구 목동서로 67, 3층 (목동, 우성에펠타운)",혜담소아청소년과의원,37.5363701,126.8785079,2636-1100
,"서울특별시 종로구 종로 87-1, 3층 (종로2가)",종로30분치과의원,37.5704468,126.9872955,
서울특별시 구로구 개봉동 403번지 93호 1-2층,"서울특별시 구로구 개봉로 13, 1-2층 (개봉동)",한솔정형외과의원,37.4867897,126.8561298,02-2613-1937
서울특별시 강서구 가양동 14-51 토피아빌딩,"서울특별시 강서구 화곡로 429, 토피아빌딩 6층 (가양동)",바로편안성모의원,37.5615332,126.8550768,02-2658-1222
서울특별시 광진구 광장동 571-1,"서울특별시 광진구 광나루로 619, 3층 (광장동)",마음이닿는치과의원,37.5410525,127.0964511,02-447-7528
서울특별시 동대문구 휘경동 380,"서울특별시 동대문구 망우로 46, 상가동 3101~3106호 (휘경동)",서울저스트치과의원,37.5891308,127.06166,02-2213-8222
"서울특별시 금천구 시흥동 912-20 에벤에셀프라자 304,3호","서울특별시 금천구 금하로 720, 에벤에셀프라자 304,305,307,308호 (시흥동)",내일내과의원,37.4504089,126.9098128,802-7555
서울특별시 금천구 가산동 371-28 우림라이온스밸리 A동 102호,"서울특별시 금천구 가산디지털1로 168, 우림라이온스밸리 A동 102호 (가산동)",아하로마이비인후과의원,37.4808008,126.8821084,02-885-3995
서울특별시 중구 명동2가 2-16 T avenue,"서울특별시 중구 명동길 60, T avenue 8층 (명동2가)",명동연세치과의원,37.5637201,126.9857874,02-6956-2879
,"서울특별시 양천구 월정로 57, 2층 (신월동)",수프라임치과의원,37.5245966,126.8414153,02-2607-2276
서울특별시 도봉구 창동 1-28 씨드큐브 창동,"서울특별시 도봉구 마들로13길 61, 씨드큐브 창동 3층 301-3호 (창동)",멜로우피부과의원,37.6531468,127.0486956,02-6077-8811
서울특별시 강남구 역삼동 822번지 2호 비전타워,"서울특별시 강남구 테헤란로 107, 비전타워 7층,9층 (역삼동)",강남조은눈안과의원,37.4987079,127.0286602,535-8001
,"서울특별시 송파구 새말로8길 27 (문정동, 봉의빌딩 2층)",준재활의학과의원,37.4802837,127.1269729,02-2043-5672
서울특별시 강남구 신사동 583 EGI빌딩,"서울특별시 강남구 논현로 843, EGI빌딩 7층 (신사동)",글로비지테라안티에이징의원,37.5244195,127.0279821,02-516-3398
서울특별시 관악구 남현동 1058-16,"서울특별시 관악구 남부순환로 2064, 3,4층 (남현동)",사당똑바른정형외과의원,37.4701922,126.978844,02-585-8288
서울특별시 강동구 성내동 416번지 20호 2층,서울특별시 강동구 풍성로 216 (성내동),화수분한의원,37.5289024,127.1355956,02-477-7575
서울특별시 강남구 청담동 80-4 3층,"서울특별시 강남구 압구정로 432, 3층 (청담동)",메이린청담의원,37.5266477,127.0440746,02-3445-9103
,서울특별시 도봉구 도봉로113길 15 (쌍문동),경희용뜸한의원,37.6480393,127.0331673,02-904-7730
서울특별시 마포구 동교동 158-1,"서울특별시 마포구 월드컵북로2길 57, 5층 501호 (동교동)",메이퓨어의원,37.5574993,126.9232963,02-3141-9979
,"서울특별시 구로구 새말로 34, 2층 (구로동)",더바른한의원,37.5026293,126.8847414,02-854-1075
,"서울특별시 서초구 신반포로 213, 7동 29호30호 (잠원동, 반포쇼핑타운)",배한호한의원,37.5131866,127.0180358,02-596-3223
서울특별시 동대문구 답십리동 488번지 46호 계림빌딩 3층,"서울특별시 동대문구 전농로 24, 계림빌딩 3층 (답십리동)",답십리연세정형외과의원,37.5670027,127.0569381,02-2215-6753
서울특별시 은평구 역촌동 42-60,"서울특별시 은평구 진흥로1길 2, 2층 (역촌동)",연세건치과의원,37.6005987,126.9189741,02-303-2875
,"서울특별시 양천구 목동중앙남로11길 3, 2층 (목동)",목사랑한의원,37.5391737,126.8657534,02-2648-1075
"서울특별시 양천구 목동 962번지 0호 목동트라팰리스 이스턴에비뉴 가로변상가 401-1, 402호","서울특별시 양천구 오목로 299, 가로변상가 401-1, 402호 (목동, 목동트라팰리스 웨스턴에비뉴)",오영제한의원,37.5259926,126.8703832,02-2631-5503
서울특별시 종로구 내수동 4 옥빌딩 501호,"서울특별시 종로구 새문안로5가길 11, 옥빌딩 501호 (내수동)",서울36의원,37.5730888,126.9738292,02-3210-3634
서울특별시 광진구 화양동 48번지 3호 웅진빌딩,"서울특별시 광진구 아차산로 213, 웅진빌딩 4층 (화양동)",건대하늘정신건강의학과의원,37.5413173,127.0672393,02-463-1331
서울특별시 마포구 공덕동 256번지 13호 제일빌딩 208호,"서울특별시 마포구 만리재로 15, 208호 (공덕동, 제일빌딩)",견우한의원,37.5445593,126.9526751,02-703-9754
서울특별시 강남구 역삼동 756-14,"서울특별시 강남구 선릉로 323, 2층 6층 (역삼동)",서울아이안과의원,37.498365,127.0515642,02-2135-5646
서울특별시 중랑구 묵동 239번지 53호,"서울특별시 중랑구 동일로 903, 2~5층 (묵동)",성모마음정신건강의학과의원,37.6108892,127.0773127,02-972-4300
서울특별시 영등포구 여의도동 43-3 홍우빌딩,"서울특별시 영등포구 국제금융로 78, 홍우빌딩 309호 (여의도동)",서울경희한의원,37.5208907,126.9312481,02-6085-1075
서울특별시 강남구 논현동 118-6,"서울특별시 강남구 학동로53길 3-2, 9층 (논현동)",청담안즈피부과의원,37.5171047,127.0394015,0507-1493-7900
서울특별시 성동구 금호동4가 548-1,"서울특별시 성동구 독서당로 302, 3층 4호 (금호동4가)",금호정든치과의원,37.54780969999999,127.0225637,02-2296-2879
,"서울특별시 송파구 오금로 497, 2층 (거여동)",양성한의원,37.4935018,127.1441905,02-406-3258
서울특별시 송파구 거여동 43-3,"서울특별시 송파구 거마로 28, 2층 201호 (거여동)",아미치과의원,37.4971916,127.1471468,02-431-2828
,"서울특별시 강서구 마곡중앙6로 11, 보타닉파크타워3 213호 (마곡동)",그래한의원,37.5609162,126.8288551,02-6738-8275
서울특별시 강남구 신사동 581-10 하피스빌딩,"서울특별시 강남구 압구정로28길 11, 하피스빌딩 2층 (신사동)",윤정신건강의학과의원,37.525763,127.0278296,
,"서울특별시 중랑구 상봉로 134, 3층 303호 (망우동, 삼부)",아산마이유외과의원,37.5980718,127.0933261,02-432-8878
서울특별시 영등포구 당산동2가 165 한화포레나당산,"서울특별시 영등포구 당산로 83, 2층 203호 (당산동2가, 한화포레나당산)",퍼스트윤신경외과의원,37.52225019999999,126.8953397,02-6291-0001
서울특별시 강남구 신사동 665-4 캠포츠빌딩,"서울특별시 강남구 선릉로 817, 캠포츠빌딩 3층 (신사동)",디퍼스트치과의원,37.5250858,127.0394412,02-6203-8777
서울특별시 강남구 대치동 507-2 대치퍼스트빌딩,"서울특별시 강남구 삼성로 155, 대치퍼스트빌딩 2층 207호 (대치동)",대치연세성장소아청소년과의원,37.4937674,127.0629078,02-6958-8568
서울특별시 동대문구 답십리동 21번지 8호 3층 301호,"서울특별시 동대문구 전농로 36, 답십리포레스트스퀘어 3층 301호 (답십리동)",서울기쁨치과의원,37.5680109,127.0574333,02-6461-2875
서울특별시 마포구 아현동 330번지 3호,"서울특별시 마포구 신촌로 266, 3층 (아현동)",아산편한내과의원,37.557092,126.9551086,02-3147-1575
서울특별시 강남구 역삼동 766-20 역삼프라자,"서울특별시 강남구 도곡로51길 4, 역삼프라자 2층 (역삼동)",연세자람정신건강의학과의원,37.4955787,127.0498106,02-501-0750
,"서울특별시 노원구 동일로 1374, 미산빌딩 6층 (상계동)",수정한의원,37.6513068,127.061782,02-932-3815
서울특별시 은평구 대조동 241 베르디움STAY1,"서울특별시 은평구 통일로 767, 2층 226,227호 (대조동, 베르디움STAY1)",연세팜스의원,37.61382210000001,126.9265472,02-387-2755
서울특별시 금천구 시흥동 803-20 금천빌딩 4층 402호,"서울특별시 금천구 독산로 134, 금천빌딩 4층 402호 (시흥동)",정경화정신건강의학과의원,37.4592884,126.9053039,02-894-7875
서울특별시 종로구 홍파동 199 경희궁자이 2단지,"서울특별시 종로구 송월길 99, 상가동 2230호 (홍파동, 경희궁자이 2단지)",푸른나무내과의원,37.5704927,126.963397,02-737-7575
서울특별시 종로구 숭인동 81-15 필빌딩 6층,"서울특별시 종로구 지봉로 50, 필빌딩 6층 (숭인동)",연세유세브란스치과의원,37.5745355,127.0159759,02-743-2080
,"서울특별시 금천구 시흥대로 225, 제이타워 4층 (시흥동)",연세탑내과의원,37.4537576,126.9004203,02-6956-2975
서울특별시 노원구 중계동 506번지 브라운스톤,"서울특별시 노원구 동일로203가길 29, 260~262호 (중계동, 브라운스톤중계)",바른이비인후과의원,37.6399359,127.0642574,02-976-2400
서울특별시 서대문구 북아현동 126-22 우리내일병원,"서울특별시 서대문구 신촌로37길 10, 우리내일병원 3층 (북아현동)",연세내일치과의원,37.5576728,126.956993,02-364-2228
,"서울특별시 영등포구 신길로 137, 신길태원빌딩 3층 (신길동)",신길튼튼정형외과의원,37.5046107,126.9100791,02-846-1369
서울특별시 용산구 이촌동 300-21 유일빌딩,"서울특별시 용산구 이촌로84길 9, 4층 (이촌동)",슈어플란트치과의원,37.5184428,126.9771125,02-6365-2875
"서울특별시 강남구 자곡동 638 세곡드림프라자 403, 404, 405호  호","서울특별시 강남구 자곡로 120, 세곡드림프라자 403, 404, 405호 (자곡동)",강남드림내과의원,37.4721173,127.0965093,02-459-9777
서울특별시 서초구 반포동 707-11 프린스빌딩,"서울특별시 서초구 강남대로 535, 프린스빌딩 9층 (반포동)",에스와이(SY)성형외과의원,37.5096023,127.0215983,02-333-4800
서울특별시 서초구 서초동 1305 서산빌딩,"서울특별시 서초구 강남대로 441, 서산빌딩 12층 (서초동)",디아이성형외과의원,37.5017073,127.0251797,02-511-1581
서울특별시 중랑구 신내동 613-8,"서울특별시 중랑구 봉화산로 218, 2층 202호 (신내동)",연세혜안정신건강의학과의원,37.6073352,127.0970557,02-6951-4846
서울특별시 서초구 반포동 737번지 3호,"서울특별시 서초구 강남대로 499, 3층 (반포동)",다비드치과의원,37.5065679,127.0230488,02-544-2879
서울특별시 관악구 봉천동 1639-1,"서울특별시 관악구 인헌6길 15, 2층 (봉천동)",고려튼튼마취통증의학과의원,37.4738605,126.9658684,02-888-8275
서울특별시 강남구 도곡동 467-14 린스퀘어,"서울특별시 강남구 언주로30길 39, 린스퀘어, 4층일부 (도곡동)",글로벌케어내과의원,37.4887091,127.0532038,2058-1199
,"서울특별시 강남구 봉은사로 109, 산타홍타워 6층 (논현동)",보미오라한의원,37.5051258,127.0255844,02-546-1031
서울특별시 영등포구 영등포동7가 145번지 8호 아크로타워 스퀘어 3층 13동,"서울특별시 영등포구 국회대로54길 10, 13동 3층 (영등포동7가, 아크로타워 스퀘어)",서울아크로치과의원,37.523105,126.9072522,02-2636-1117
,"서울특별시 광진구 자양번영로 46, 1층 (자양동)",한강한의원,37.5336367,127.0760645,02-6956-8875
서울특별시 노원구 상계동 706-2 노원역 보미 더 클래스 오피스텔,"서울특별시 노원구 상계로 32, 노원역 보미 더 클래스 오피스텔 2층 (상계동)",서울H치과의원,37.655032,127.0585935,02-932-3618
,"서울특별시 중랑구 동일로 786, 1,5,6층 (중화동)",서울우리정형외과의원,37.6007191,127.0799871,02-438-4500
,"서울특별시 은평구 응암로 235, 2층 (응암동)",바른정형외과의원,37.5930073,126.9175923,02-376-7575
서울특별시 동작구 사당동 134번지 2호 광주약국 2층호,"서울특별시 동작구 동작대로 127, 광주약국 2층 (사당동)",이수정성한의원,37.4879623,126.9819343,02-556-8275
서울특별시 송파구 송파동 121 한양아파트상가,"서울특별시 송파구 가락로 183, 한양아파트상가 2층 9,9-1,9-2호 (송파동)",미톡스외과의원,37.5050678,127.11454,02-425-6631
서울특별시 송파구 잠실동 22-6 리센츠,"서울특별시 송파구 올림픽로 145, 리센츠 4층 4B17일부, 4B18호 (잠실동)",연세리센츠산부인과의원,37.5140313,127.0882363,02-412-7788
,"서울특별시 송파구 백제고분로48길 35, 혜성빌딩 2층 (방이동)",무지개한의원,37.5106046,127.1169506,02-544-8455
,"서울특별시 마포구 월드컵로14길 5, 6층 (서교동)",맑은빛성모안과의원,37.5560143,126.9106878,02-322-7211
서울특별시 광진구 화양동 48-14 삼영빌딩,"서울특별시 광진구 아차산로 219, 삼영빌딩 2층 1호 (화양동)",유앤아이의원,37.5425408,127.0737253,02-2039-3459
서울특별시 도봉구 방학동 736 신동아타워아파트,"서울특별시 도봉구 방학로 210, 101동 상가1층 2호 (방학동, 신동아타워아파트)",늘푸른한의원,37.6622268,127.0288352,02-3493-8881
,"서울특별시 중랑구 겸재로 180 (면목동, 안민병원)",오케이한의원,37.5881452,127.0879582,02-2294-2296
서울특별시 은평구 신사동 29번지 178호,"서울특별시 은평구 은평로 30, 2층 (신사동)",온누리한의원,37.5979249,126.9111627,02-382-2325
,"서울특별시 강남구 삼성로 38, 개포빌딩 3층 303호 (개포동)",성모바른의원,37.4886736,127.0668063,02-3411-8575
서울특별시 강남구 개포동 167-9,"서울특별시 강남구 선릉로 34, 4층 (개포동)",삼성더건강내과의원,37.4802905,127.0626272,02-6953-0815
,"서울특별시 강동구 올림픽로 787, 태성프라자 6층 (암사동)",암사탑정형외과의원,37.5514792,127.1277197,02-426-0365
서울특별시 마포구 신공덕동 15-75,"서울특별시 마포구 백범로37길 26, 2,6층 (신공덕동)",마포정형외과의원,37.54430079999999,126.9549311,02-711-8775
서울특별시 마포구 망원1동414-2 2층,"서울특별시 마포구 망원로 74-1, 2층 (망원동)",신계원소아청소년과의원,37.5572482,126.9051803,338-4786
서울특별시 강남구 신사동 616-1,"서울특별시 강남구 압구정로 222, 3층 (신사동)",에버피부과의원,37.5284242,127.0317745,02-795-9553
서울특별시 강남구 역삼동 815-4 만이빌딩,"서울특별시 강남구 강남대로 428, 만이빌딩 8층 (역삼동)",강남오앤의원,37.5007937,127.0268277,
서울특별시 강동구 명일동 46-3 고덕역 대명벨리온,"서울특별시 강동구 고덕로 266, 고덕역 대명벨리온 4층 411-416,418,419호 (명일동)",닥터스피부과의원,37.5547099,127.155171,02-6959-1255
"서울특별시 서대문구 홍제3동 266번지 129호 외 1필지(지1층, 1층, 2층, 5층)","서울특별시 서대문구 세검정로 32, 지1,1,2,5층 (홍제동)",채내과의원,37.5915998,126.9449537,02-391-6703
서울특별시 중랑구 면목동 103-6 봄작시티 201,"서울특별시 중랑구 겸재로 201, 5층 (면목동, 봄작시티 201)",미유치과의원,37.588073,127.0862569,02-433-2883
서울특별시 서초구 서초동 1318,"서울특별시 서초구 강남대로 411, 7~10층 (서초동)",하루플란트치과의원,37.4904509,127.0305252,02-534-2875
서울특별시 마포구 도화동 563 마포아크로타워,"서울특별시 마포구 마포대로 68, 지하1층 B05,B06(일부)호 (도화동, 마포아크로타워)",메이퓨어의원마포공덕점,37.5413152,126.9489731,02-714-4479
서울특별시 강서구 화곡동 362번지 86호,서울특별시 강서구 가로공원로76길 73 (화곡동),조한의원,37.5339832,126.8385562,02-2603-7575
서울특별시 은평구 진관동 70번지 메트로프라자 9층,"서울특별시 은평구 진관2로 15-46, 9층 (진관동, 메트로프라자)",구파발정형외과의원,37.6386256,126.9190787,02-334-8275
서울특별시 강남구 대치동 316 은마아파트,"서울특별시 강남구 삼성로 212, 상가 C동 205호 (대치동, 은마아파트)",강남제일한의원,37.4974176,127.0653272,02-567-5687
,"서울특별시 강남구 압구정로29길 21, 현대백화점 컬처파크 지하 1층 (압구정동)",메이린의원,37.5286573,127.0276853,02-563-0000
서울특별시 양천구 신정4동 900번지 14호,"서울특별시 양천구 목동로 201, 3층 (신정동)",정영철피부과의원,37.52638049999999,126.8639477,02-2699-0844
서울특별시 강남구 논현동 1-1 1st Avenue,"서울특별시 강남구 도산대로 104, 1st Avenue 8층 (논현동)",리아이성형외과의원,37.5160779,127.0203464,02-549-7889
,"서울특별시 동작구 동작대로27길 31, 3층 (사당동)",이수자연치과의원,37.4874088,126.9801961,02-532-2750
서울특별시 영등포구 당산동6가 217-1,"서울특별시 영등포구 양평로 20, 5층 (당산동6가)",도움의원,37.5330963,126.9040966,02-2636-3601
서울특별시 중구 신당동 140-7 2층,"서울특별시 중구 퇴계로 436-1, 2층 (신당동)",상록수정신과의원,37.5654656,127.020099,2252-4657
,서울특별시 강남구 도산대로25길 44 (신사동),경희자연한의원,37.5224557,127.0260832,02-544-9537
서울특별시 마포구 서교동 393번지 4호 두암빌딩,"서울특별시 마포구 양화로 61, 두암빌딩 1(일부)2(일부)층 (서교동)",랩이비인후과의원,37.5531742,126.9173647,02-6015-5075
,"서울특별시 강남구 헌릉로570길 34 (세곡동, 리엔파크프라자 304호)",온한의원,37.4631419,127.1034644,02-445-2275
서울특별시 중랑구 면목7동 634번지 8호,서울특별시 중랑구 면목로 305 (면목동),동승한의원,37.5797047,127.0874363,02-433-7109
서울특별시 중구 신당동 372-3 3층,"서울특별시 중구 동호로 171, 3층 (신당동)",신세계신경외과의원,37.5534555,127.0113293,02-2237-0015
서울특별시 금천구 시흥동 991-5 3층 306~310호,"서울특별시 금천구 시흥대로 189, 3층 306~310호 (시흥동)",유현마취통증의학과의원,37.4617387,126.9124391,02-803-8005
서울특별시 동작구 흑석1동 100-9,서울특별시 동작구 서달로 163 (흑석동),우소아청소년과의원,37.5078892,126.962493,02-816-0777
서울특별시 구로구 구로동 142번지 75호 정내과,"서울특별시 구로구 구로중앙로 10, 정내과 (구로동)",정내과의원,37.4913203,126.8925355,02-866-0356
서울특별시 송파구 마천동 128-35 메디파크빌딩,"서울특별시 송파구 마천로 295-1, 메디파크빌딩 2,3층 (마천동)",강플러스내과의원,37.4962884,127.1491922,02-400-8827
"서울특별시 종로구 청진동 184-1 삼송빌딩 601,602,605,801호","서울특별시 종로구 종로3길 34, 삼송빌딩 601,602,605,801호 (청진동)",광화문숲정신건강의학과의원,37.5718675,126.9794692,02-722-7977
,"서울특별시 금천구 디지털로 200, 우리은행 가산IT타워 5층 (가산동)",서울아산다온재활의학과의원,37.4782705,126.888903,02-854-9988
서울특별시 강북구 미아동 35번지 5호 에코피아빌딩 7층,"서울특별시 강북구 도봉로 30, 7층 (미아동, 에코피아빌딩)",스마일위드치과교정과치과의원,37.6116136,127.0305742,02-945-3679
,"서울특별시 성북구 길음로9길 50, 상가동 1층 212호 (길음동, 길음뉴타운)",365경희길음한의원,37.6037834,127.0194529,02-915-1875
서울특별시 강남구 도곡동 420-16 2층,"서울특별시 강남구 논현로28길 43, 테라빌딩 2층 (도곡동)",장현규내과의원,37.4845023,127.045166,02-.577.-1750
서울특별시 성북구 하월곡동 90-1793,"서울특별시 성북구 종암로34길 7, 1층 (하월곡동)",월곡소담한의원,37.6050419,127.0322359,02-912-8800
서울특별시 강남구 신사동 501-2 BIO,"서울특별시 강남구 도산대로 107, BIO 15층 (신사동)",오체안성형외과의원,37.5167698,127.0200738,02-547-5670
서울특별시 중랑구 중화동 294-2 태능제일의원,"서울특별시 중랑구 동일로 770, 2층 (중화동)",선한미소치과의원,37.5992646,127.0803126,02-435-4050
서울특별시 성북구 종암동 3-686 시원빌딩,"서울특별시 성북구 종암로 122, 시원빌딩 2층 (종암동)",서울진소아청소년과의원,37.6011982,127.0339945,02-911-1110
서울특별시 서초구 방배동 1549 방배동예다인프라자빌딩,"서울특별시 서초구 동작대로 118, 방배동예다인프라자빌딩 7층 (방배동)",플로레스피부과의원,37.4869655,126.9827324,
서울특별시 중구 황학동 2523 황학 아크로타워 320~3호,"서울특별시 중구 퇴계로 447, 320~321호 (황학동, 황학 아크로타워)",서울온정신건강의학과의원,37.565869,127.0215764,02-6324-1002
서울특별시 은평구 불광동 267-1,"서울특별시 은평구 통일로 750, 4층 (불광동)",닥터스피부과의원 은평점,37.6124101,126.9286358,02-356-7572
서울특별시 서초구 방배동 752-36 아크로리버 104호,"서울특별시 서초구 방배중앙로 207-10, 1층 104호 (방배동, 아크로리버)",백옥헌한의원,37.4977802,126.984543,02-548-9500
서울특별시 강남구 청담동 32번지 3호 영빌딩 3층,"서울특별시 강남구 삼성로133길 8 (청담동, 영빌딩 3층)",서울예우치과의원,37.5197997,127.0486797,516-2833
,"서울특별시 노원구 동일로 1350, 삼양빌딩 2층 202, 203호 (상계동)",선명한의원,37.6492471,127.0624077,02-2088-7553
서울특별시 구로구 구로동 754번지 7호 남부빌딩,"서울특별시 구로구 구로동로 135, 남부빌딩 2층 (구로동)",구로성모정형외과의원,37.4906837,126.8837563,02-857-9535
서울특별시 송파구 가락동 600 가락동 농수산물도매시장,"서울특별시 송파구 양재대로 932, 가락동 농수산물도매시장 업무동 5층 (가락동)",연세위너스재활의학과의원,37.4934824,127.1115038,02-6953-2775
서울특별시 강남구 논현동 111번지 13호 노벨빌딩 3층,"서울특별시 강남구 선릉로131길 8, 3층 (논현동, 노벨빌딩)",김상수마이크로의원,37.5179802,127.0402658,02-2138-8838
서울특별시 강남구 논현동 118-15 다른타워,"서울특별시 강남구 학동로 335, 다른타워 8층 (논현동)",굿이너프정신건강의학과의원,37.5169783,127.0396539,02-512-4917
,"서울특별시 강남구 논현로 401, 청송빌딩 2층 (역삼동)",강남대중한의원,37.4959266,127.0388715,02-555-9377
서울특별시 강남구 대치동 316번지 은마아파트내 우체국상가 206호,"서울특별시 강남구 삼성로 212 (대치동, 은마아파트내 우체국상가 206호)",김영석한방내과한의원,37.4974576,127.0653265,02-566-7599
,"서울특별시 송파구 토성로 78, 204호 (풍납동, 정민빌딩)",맑음치과의원,37.5280542,127.1183746,483-2080
서울특별시 중랑구 망우동 488번지 8호 장스빌딩A동,"서울특별시 중랑구 망우로 411, A동 2층 (망우동, 장스빌딩)",장스내과의원,37.5997267,127.0975799,02-490-4102
,"서울특별시 관악구 난곡로 60, 201호 (신림동, 산타플러스빌딩)",삼성경희한의원,37.4608136,126.9193833,02-851-1557
,서울특별시 강북구 덕릉로 164 (번동),모아한의원(수유점),37.635106,127.0320549,02-985-0505
서울특별시 영등포구 여의도동 43번지 미원빌딩 4층,"서울특별시 영등포구 국제금융로 70, 4층 (여의도동, 미원빌딩)",연세휴재활의학과의원,37.5214292,126.9306415,783-7775
,"서울특별시 성북구 보국문로11길 7, 동우빌딩 2층 (정릉동)",경희든든한의원,37.608308,127.0093184,-6952-0875
,"서울특별시 서초구 강남대로 621, 2층 (잠원동, K TOWER)",닥터진이비인후과의원,37.5170971,127.0188558,02-2088-8585
서울특별시 용산구 갈월동 101-49 고려에이트리움,"서울특별시 용산구 한강대로 259, 고려에이트리움 403호 (갈월동)",정담정신건강의학과의원,37.5415123,126.9724532,02-6954-1313
서울특별시 성북구 장위동 237-232,"서울특별시 성북구 돌곶이로 191, 2층 (장위동)",성심플러스내과의원,37.6172364,127.0481779,02-6081-5800
서울특별시 구로구 오류동 54-5 하늘쉼빌딩,"서울특별시 구로구 경인로20가길 5, 하늘쉼빌딩 2층 201호 (오류동)",서울다정치과의원,37.4954593,126.8441125,02-2066-2828
"서울특별시 서초구 서초동 1628번지 26호 한국혈우재단 B1,1,2,4층","서울특별시 서초구 사임당로 70, 한국혈우재단 1,2,4,B1층 (서초동)",한국혈우재단의원,37.4890469,127.0175481,02-3473-6100
서울특별시 강남구 신사동 639-3,"서울특별시 강남구 압구정로 320, 4층 (신사동)",닥터정리반의원,37.5284952,127.0364174,02-1833-8308
,"서울특별시 강남구 가로수길 65, 4,5,6층 (신사동)",더라인성형외과의원,37.5223392,127.0224843,1899-0252
서울특별시 강남구 신사동 501 신사미타워,"서울특별시 강남구 강남대로 616, 신사미타워 5층 501호 (신사동)",유비에이외과의원,37.5168431,127.0197682,02-514-6075
서울특별시 송파구 마천동 129번지 1호(2층),"서울특별시 송파구 마천로41길 15, 2층 (마천동)",김찬웅한의원,37.4973178,127.149479,02-448-6457
서울특별시 서초구 서초동 1316-5 부띠크 모나코,"서울특별시 서초구 서초대로 397, 부띠크 모나코 304호 (서초동)",김동수정신건강의학과의원,37.4974995,127.0245281,02-535-5778
서울특별시 양천구 신정동 1183번지 5호,"서울특별시 양천구 중앙로 265, 4층 (신정동)",바른윤오정형외과의원,37.5199187,126.8526195,02-2605-8275
,"서울특별시 영등포구 영등포로5길 28, 2층 (양평동2가)",다정한의원,37.5244121,126.8847668,02-541-7588
서울특별시 서초구 서초동 1318-1,"서울특별시 서초구 강남대로 407, 5층 (서초동)",맥스구강악안면외과치과의원,37.4904509,127.0305252,
서울특별시 서초구 서초동 1307-21 BLOCK77,"서울특별시 서초구 서초대로77길 17, BLOCK77 702호 (서초동)",비티성형외과의원,37.4997323,127.0255849,
,"서울특별시 관악구 은천로 110, 302호 (봉천동, 더블유에스타워)",상생한의원,37.4866769,126.9474254,02-886-2900
서울특별시 영등포구 양평동4가 151-1 엠엔지타워,"서울특별시 영등포구 양평로 98, 엠엔지타워 5~6층 (양평동4가)",선유도바로튼튼의원,37.5368341,126.8964872,02-2635-7900
,"서울특별시 강서구 화곡로 142 (화곡동, 메가박스)",가지런S치과의원,37.5405875,126.8375688,02-2603-2879
서울특별시 강남구 신사동 592-4 제이와이(JY빌딩),"서울특별시 강남구 논현로 826, 제이와이(JY빌딩) 4층 (신사동)",그녀의헤어라인의원,37.5222203,127.0285368,02-6953-5827
,"서울특별시 성북구 길음로 33, 상가B동 지1층 제4호,제5호 (길음동, 길음뉴타운)",삼성맑은의원한의원,37.6075609,127.0179449,02-912-3500
서울특별시 양천구 목동 917-9 현대41타워,"서울특별시 양천구 목동동로 293, 현대41타워 403호 (목동)",41연세빛정신건강의학과의원,37.5281764,126.8758132,02-6010-7582
서울특별시 강서구 화곡동 372-10,"서울특별시 강서구 가로공원로76길 16, 2층 (화곡동)",정동진치과의원,37.5363091,126.8370609,02-2699-5979
서울특별시 관악구 봉천동 1686번지 11호,"서울특별시 관악구 남부순환로 1919, 2층 (봉천동)",약선당한의원,37.4777069,126.9626425,02-6338-7888
서울특별시 강남구 신사동 584-3 6층,"서울특별시 강남구 논현로 837, 원방빌딩 6층 (신사동)",서울클리어치과교정과치과의원,37.523291,127.0279659,02-542-2809
서울특별시 강서구 마곡동 801번지 2호 312호,"서울특별시 강서구 공항대로 248, 대방빌딩 3층 312호 (마곡동)",서울하루치과의원,37.5584316,126.8349184,02-6341-2080
서울특별시 성북구 동소문동1가 32-2,"서울특별시 성북구 동소문로 15, 2층 (동소문동1가)",은혜치과의원,37.5900331,127.007273,02-3676-2875
서울특별시 영등포구 대림동 952번지 19호 삼성YJ그랜드빌딩,"서울특별시 영등포구 시흥대로 675, 삼성YJ그랜드빌딩 4층 (대림동)",더바른성모정형외과의원,37.49206119999999,126.9084675,02-833-8875
서울특별시 영등포구 여의도동 22 파크원,"서울특별시 영등포구 여의대로 108, 파크원 2층 207호 (여의도동)",파크원현대엠치과의원,37.5270903,126.9278135,
서울특별시 마포구 신수동 1-3 서강빌딩 502호,"서울특별시 마포구 서강대길 3, 서강빌딩 502호 (신수동)",콧숨치과의원,37.5494635,126.9393597,02-333-2804
서울특별시 강남구 청담동 3번지 청담스퀘어,"서울특별시 강남구 도산대로 420, 청담스퀘어 4층 (청담동)",유로성형외과의원,37.5231159,127.0419539,02-540-0770
서울특별시 마포구 망원동 474-3 가은빌딩,"서울특별시 마포구 월드컵로 155, 가은빌딩 2층 (망원동)",참경희한의원,37.5613359,126.9048907,02-336-1700
서울특별시 성북구 성북동 184-63 영산부인과,"서울특별시 성북구 성북로6길 4, 1,2층 (성북동)",영라인의원,37.5895868,127.0052793,02-764-9544
서울특별시 은평구 응암동 110-1 위산 일리온시티,"서울특별시 은평구 은평로 116, 3층 (응암동, 위산 일리온시티)",은평오케이마취통증의학과의원,37.5999023,126.9207032,02-382-9989
서울특별시 마포구 공덕동 479 공덕SK리더스뷰,"서울특별시 마포구 백범로31길 8, 2층 203,204,205호 (공덕동, 공덕SK리더스뷰)",연세소리이비인후과의원,37.5450244,126.948712,02-701-1199
,"서울특별시 서대문구 연세로 10-1, 6층 (창천동, 즐거운빌딩)",꼼꼼한의원,37.5564834,126.9371287,02-312-8275
"서울특별시 은평구 갈현동 548번지 302,302-1호","서울특별시 은평구 갈현로 300, 302,302-1호 (갈현동)",현명한플란트치과의원,37.6236081,126.9174235,02-6380-0118
"서울특별시 동대문구 이문동 305-2 4,5층","서울특별시 동대문구 휘경로 13, 4,5층 (이문동)",바로핀재활의학과의원,37.5960214,127.0617425,02-961-8582
서울특별시 광진구 광장동 463-3,"서울특별시 광진구 아차산로 532, 4층 (광장동)",더열린이비인후과의원,37.54239889999999,127.1004627,02-446-0997
서울특별시 강북구 미아동 126-4,"서울특별시 강북구 도봉로 174, 2층 (미아동)",서울조이내과의원,37.6244136,127.0272679,02-980-1012
서울특별시 동대문구 제기동 1140-5 불로장생타워 6층전체,"서울특별시 동대문구 왕산로 117, 불로장생타워 6층전체 (제기동)",순환한의원,37.5785227,127.0365106,02-3444-7700
,"서울특별시 마포구 마포대로 173-14, 마포 센텀 슬로우스퀘어 3층 303호 (아현동)",아이랑한의원,37.5509007,126.9534514,02-3148-0112
서울특별시 중구 신당동 373-3 대승빌딩 5층,"서울특별시 중구 동호로 180, 대승빌딩 5층 (신당동)",유태석내과의원,37.5544541,127.0113076,02-2233-7076
서울특별시 서초구 서초동 1317-20 아라타워,"서울특별시 서초구 서초대로77길 3, 아라타워 지하1층 (서초동)",메이드영성형외과의원,37.4979437,127.0265374,02-533-5233
서울특별시 중랑구 상봉동 74-10,"서울특별시 중랑구 망우로 367, 2층 (상봉동)",광덕안정한의원,37.5984797,127.0931553,02-6956-7518
,"서울특별시 강남구 헌릉로569길 27, 2층 (세곡동, 2층일부(201-2호,202호))",세곡달빛의원,37.466796,127.09879,02-459-0119
"서울특별시 성북구 정릉동 401번지 46호 201호,202호","서울특별시 성북구 보국문로 50, 201호,202호 (정릉동)",이소진의원,37.6088883,127.0101266,02-909-8877
,"서울특별시 은평구 진관2로 19, 406호 (진관동)",경희소금빛한의원,37.6348632,126.919578,02-996-5959
서울특별시 서초구 서초동 1306-4 강남 지웰타워2,"서울특별시 서초구 서초대로77길 24, 강남 지웰타워2 5층 501호 (서초동)",라포엘 의원,37.5000238,127.0259874,
서울특별시 강남구 논현동 4-20,"서울특별시 강남구 도산대로12길 6, 3층 (논현동)",미림바이오한의원,37.5171011,127.0234498,1644-4712
서울특별시 성동구 성수동1가 656번지 323호 성수문화복지회관 1층,서울특별시 성동구 뚝섬로1길 43 (성수동1가),성동재활의원,37.5454156,127.0469729,02-2204-9970
서울특별시 중랑구 상봉동 91-4 상봉역 유보라 퍼스트리브&포스퀘어,"서울특별시 중랑구 망우로 322, 3층 301~306, 317, 318, 320호 (상봉동, 상봉역 유보라 퍼스트리브&포스퀘어)",상봉퍼스트본정형외과의원,37.59676779999999,127.088111,02-433-0683
서울특별시 서초구 잠원동 12-17 대양빌딩,"서울특별시 서초구 강남대로 617, 대양빌딩 4층 (잠원동)",선이고은한의원,37.5168713,127.0186812,02-555-0057
서울특별시 강남구 도곡동 193-40 비젠빌딩,"서울특별시 강남구 남부순환로377길 7, 지1층,1층,2층 (도곡동, 비젠빌딩)",사암당한의원,37.486919,127.044927,02-2038-8304
서울특별시 은평구 불광동 267,"서울특별시 은평구 통일로 746, 5,6층 (불광동)",불광고려마취통증의학과의원,37.611816,126.9288072,02-356-7512
서울특별시 강동구 성내동 428번지 6호,"서울특별시 강동구 양재대로 1349, 2층 (성내동)",오케이재활의학과의원,37.52678510000001,127.135324,02-474-7560
서울특별시 마포구 서교동 395번지 44호 한동빌딩,"서울특별시 마포구 양화로 68, 6층 (서교동, 한동빌딩)",퍼플라인치과의원,37.5507521,126.9160661,02-333-2875
서울특별시 은평구 구산동 2-36 세웅그룹빌딩,"서울특별시 은평구 서오릉로 149, 세웅그룹빌딩 2층 좌측호 (구산동)",살림의료복지사회적협동조합살림의원,37.6115551,126.9161904,02-6014-9949
서울특별시 노원구 공릉동 566번지 9호,서울특별시 노원구 동일로180길 17 (공릉동),평산한의원,37.6224733,127.0752652,949-0301
서울특별시 동대문구 용두동 236번지 59호 2층,"서울특별시 동대문구 왕산로 42, 2층 (용두동)",중앙정형외과의원,37.57683249999999,127.0281892,02-953-2282
서울특별시 송파구 방이동 22 대우유토피아오피스텔,"서울특별시 송파구 올림픽로 336, 대우유토피아오피스텔 2층 (방이동)",잠실맥스웰성형외과의원,37.5154007,127.1072819,02-6949-5600
서울특별시 송파구 방이동 88 올림픽공원 내 국민체력센터의원,"서울특별시 송파구 올림픽로 424, 국민체력센터의원 (방이동)",국민체력센터의원,37.5170285,127.1284293,02-413-5336
서울특별시 용산구 한강로2가 2-37 용산토투밸리,"서울특별시 용산구 새창로 217, 용산토투밸리 4,6층 일부호 (한강로2가)",용산정형외과의원,37.5301362,126.9677583,02-6324-0111
서울특별시 서초구 서초동 1337 강남미래타워,"서울특별시 서초구 사임당로 174, 강남미래타워 4층 407호 (서초동)",맑은소리휴한의원,37.4924056,127.0286494,02-585-0999
,"서울특별시 강남구 남부순환로 2615(도곡동, 극동스타클래스)",프레쉬이비인후과의원,37.4851013,127.035744,02-575-2033
서울특별시 강남구 신사동 577-5 카로시티1,"서울특별시 강남구 논현로171길 15, 카로시티1 5층 (신사동)",가암염원석성형외과의원,37.5255134,127.0270724,02-548-7575
서울특별시 강서구 가양동 18번지 24호 홈플러스가양점,"서울특별시 강서구 양천로 431, 홈플러스가양점 지하2층 (가양동)",연세메디플러스의원,37.5642454,126.8499416,02-3662-3040
서울특별시 송파구 가락동 188번지 13호,서울특별시 송파구 오금로46길 33 (가락동),누가정형외과의원,37.49978979999999,127.1238743,02-431-3233
서울특별시 강남구 역삼동 708-36 KR타워,"서울특별시 강남구 선릉로 429, KR타워 13층 (역삼동)",이철규이대경치과의원,37.5032049,127.0493114,555-0326
서울특별시 영등포구 영등포동3가 10-15,"서울특별시 영등포구 영중로2길 1, 9,10층 (영등포동3가)",화이트이치과의원,37.5168863,126.9068139,1544-2944
"서울특별시 서초구 서초동 1337-22 205,206,207호","서울특별시 서초구 강남대로 321, 205,206,207호 (서초동, 서초동대우디오빌프라임)",고운몸의원,37.4915781,127.0299697,02-525-0304
,"서울특별시 은평구 역말로 49 (역촌동, 2층)",은평경희부부한의원,37.6060288,126.9157942,02-6348-1075
서울특별시 광진구 자양동 507-4,"서울특별시 광진구 뚝섬로 533, 3층 (자양동)",루트웰치과의원,37.5351805,127.0694982,02-2205-2275
서울특별시 강서구 등촌동 628번지 노블리움오피스텔,"서울특별시 강서구 양천로 500, 노블리움오피스텔 205~207호 (등촌동)",세연투섬내과의원,37.5605063,126.8555794,02-3661-3714
서울특별시 노원구 월계동 562번지 아파트형공장 2층 3호,"서울특별시 노원구 월계로45길 28 (월계동, 월계아파트형공장)",현대내과의원,37.6268898,127.0512384,02-908-9339
서울특별시 동작구 사당동 148-12,"서울특별시 동작구 사당로 293, 1층 (사당동)",365백세한의원,37.4849301,126.9800427,02-534-7975
"서울특별시 영등포구 여의도동 35번지 5호 (407호, 302호)","서울특별시 영등포구 여의나루로 42, 407호 (여의도동, 여의도종합상가)",닥터킴이비인후과의원,37.5215486,126.9247997,02-780-7582
,"서울특별시 은평구 서오릉로 162, 3, 4층 (갈현동)",나인마취통증의학과의원,37.6126946,126.9153536,02-383-8291
,"서울특별시 영등포구 국제금융로 39, 301,302,303,308호 (여의도동, 브라이튼 여의도)",빛채운 피부과의원,37.5241002,126.9298175,
서울특별시 노원구 상계동 724 근호빌딩,"서울특별시 노원구 노해로 488, 근호빌딩 6층 (상계동)",오케이재활의학과의원,37.6543208,127.0621574,02-932-4880
,"서울특별시 송파구 송파대로 167, 문정역테라타워 B동 203호 (문정동)",청구경희한의원,37.4918691,127.1191517,02-2054-8999
서울특별시 강남구 수서동 746번지 까치마을 상가 209호,"서울특별시 강남구 광평로19길 10 (수서동, 까치마을 상가 209호)",원종민훼밀리의원,37.4847337,127.0876186,451-1350
서울특별시 강남구 역삼동 825-8 5층,"서울특별시 강남구 강남대로 376, 5층 (역삼동)",강남에프엠의원,37.4965166,127.0287049,02-553-0919
서울특별시 강남구 개포동 1258 네비스빌딩,"서울특별시 강남구 개포로 221, 네비스빌딩 2층 (개포동)",백림치과의원,37.4789383,127.0470902,574-2877
서울특별시 마포구 신수동 66-2 신촌크리닉존,"서울특별시 마포구 서강로 106, 신촌크리닉존 2층 (신수동)",위드미의원,37.5522952,126.9335205,
서울특별시 강북구 미아동 121번지 24호,"서울특별시 강북구 도봉로 190, 2층 (미아동, 비전빌딩)",아가파의원,37.6259186,127.0269862,987-9981
,"서울특별시 강동구 천호대로 1053, 이안 강동 컴홈스테이 1차 2층 (천호동)",진한의원,37.5372735,127.1288986,02-488-8288
서울특별시 관악구 신림동 1513번지 1호,"서울특별시 관악구 신림로 141, 3층 (신림동)",관악연세정형외과의원,37.4716183,126.9334078,02-878-8700
"서울특별시 강남구 신사동 580-4 연세바로치과, 지하1층,1층,2층,3층,4층","서울특별시 강남구 논현로 873, 연세바로치과 (신사동)",연세바로치과의원,37.5250651,127.0280558,02-3443-8585
서울특별시 강남구 대치동 944번지 6층 일부,"서울특별시 강남구 테헤란로 514 (대치동, 삼흥2빌딩 6층 일부)",삼성비앤에스의원,37.5073768,127.0597132,02-501-4341
서울특별시 중구 충무로2가 65-9 하이헤리엇,"서울특별시 중구 퇴계로 123, 하이헤리엇 9층 9011,9012호 (충무로2가)",다오의원,37.5617173,126.987815,02-757-7582
서울특별시 서초구 서초동 1317-14,"서울특별시 서초구 서초대로77길 5, 11층 (서초동)",오브의원,37.4983568,127.0264406,
서울특별시 중구 무교동 24-2 휘닉스빌딩,"서울특별시 중구 무교로 13, 휘닉스빌딩 5층 (무교동)",브라운산부인과의원,37.5671491,126.979021,02-775-7100
서울특별시 서초구 잠원동 61번지 9호 잠원동 스타빌딩 401호,"서울특별시 서초구 잠원로4길 33-2, 잠원동 스타빌딩 4층 401호 (잠원동)",히포크라타의원,37.5127866,127.0104965,02-591-9970
서울특별시 영등포구 신길동 424-3,"서울특별시 영등포구 신풍로 23, 4층 (신길동)",서울연세감성치과의원,37.5003465,126.9084386,02-6713-2875
"서울특별시 노원구 중계동 509번지 1호 302호,303호","서울특별시 노원구 동일로204가길 34 (중계동, 302호,303호)",코아한의원,37.6407489,127.0682363,02-3296-0270
서울특별시 양천구 목동 772-6 선훈아이엔지빌딩,"서울특별시 양천구 목동중앙남로 3, 선훈아이엔지빌딩 2층 (목동)",목동대통한의원,37.5349752,126.8693006,02-2647-8288
서울특별시 광진구 중곡동 637-5 리마크빌 군자,"서울특별시 광진구 천호대로 517, 201,202호 (중곡동, 리마크빌 군자)",한우식내과의원,37.5588698,127.0762574,02-464-2300
"서울특별시 양천구 신정동 201-1 세양청마루2차 주상복합, 206호, 209호","서울특별시 양천구 목동남로4길 2, 2층 206호, 209호 (신정동, 세양청마루2차 주상복합)",우리정형외과의원,37.5082569,126.8645491,02-2060-1124
서울특별시 동작구 대방동 335-17 대방동크리닉센타,"서울특별시 동작구 상도로 81, 대방동크리닉센타 6층 (대방동)",강미자산부인과의원,37.514496,126.9311485,02-817-7002
"서울특별시 동작구 신대방동 395번지 69호 506,507호","서울특별시 동작구 보라매로5가길 16, 506,507호 (신대방동)",정다운외과의원,37.4913311,126.924105,02-6274-7575
서울특별시 노원구 공릉동 323-35,"서울특별시 노원구 동일로 1101, 3층 (공릉동)",마음에치과의원,37.6281409,127.0712728,02-976-7528
서울특별시 강남구 역삼동 820-11 시계탑빌딩,"서울특별시 강남구 강남대로 402, 시계탑빌딩 9층 (별관:서울시 강남구 테헤란로 107, 메디타워5.6층) (역삼동)",올리팅성형외과의원,37.4987079,127.0286602,02-6204-0077
서울특별시 강남구 대치동 1024번지 디마크 빌딩 2층 일부,"서울특별시 강남구 도곡로 408, 디마크 빌딩 2층 (대치동)",바른길정형외과의원,37.4966281,127.055214,02-6959-0680
,"서울특별시 강남구 논현로86길 20, 역삼봉강빌딩 3층 4층 (역삼동)",서울아산플러스비뇨의학과의원,37.5000169,127.0391181,02-563-8588
서울특별시 강서구 마곡동 797-4 발산파크프라자,"서울특별시 강서구 공항대로 261, 발산파크프라자 3층 302,303호 (마곡동)",메가비뇨기과의원(강서마곡점),37.5590762,126.8364887,02-3663-7582
서울특별시 강남구 논현동 200-7 urbanhive 8층,"서울특별시 강남구 강남대로 476, urbanhive 8층 (논현동)",바이브성형외과의원,37.5048971,127.0247797,0507-1412-4888
,"서울특별시 성북구 도봉로 3, 2층 (길음동)",현백한의원,37.6094465,127.0297975,02-989-8275
서울특별시 마포구 연남동 369-6 로얄빌딩,"서울특별시 마포구 연남로 43, 로얄빌딩 3층 (연남동)",준플란트치과의원,37.5632286,126.9208641,02-338-2828
서울특별시 마포구 망원동 400번지 13호,서울특별시 마포구 망원로8길 70 (망원동),망원동한의원,37.5545926,126.9058064,02-336-1275
서울특별시 강남구 논현동 4 에메랄드타워,"서울특별시 강남구 도산대로 122, 에메랄드타워 4층 (논현동)",드올의원,37.5168518,127.0221345,02-6959-4688
서울특별시 도봉구 방학동 707-6 방학역 모비우스스퀘어,"서울특별시 도봉구 도봉로 684, 방학역 모비우스스퀘어 3층 302,303호 (방학동)",삼성윤정형외과의원,37.665366,127.0434767,02-955-7777
,서울특별시 강동구 양재대로 1603 (천호동),성심한의원,37.5488065,127.1433478,02-475-7800
서울특별시 강서구 마곡동 739-3 에스비타운,"서울특별시 강서구 마곡중앙5로 81, 에스비타운 5층 504,505호 (마곡동)",청담엔케이피부과의원,37.5670441,126.8185967,02-2135-5004
,"서울특별시 서초구 잠원로3길 40, 306호 (잠원동, 태남빌딩)",반포예담한의원,37.5081687,127.0036319,02-591-5577
서울특별시 서초구 반포동 736-2 대유빌딩,"서울특별시 서초구 강남대로85길 5, 대유빌딩 2층 (반포동)",강남성모원안과의원,37.5073821,127.0225998,02)521-1212
서울특별시 서대문구 남가좌동 344-26,"서울특별시 서대문구 증가로 132, 2,3층 (남가좌동)",연세에이스치과의원,37.5776082,126.9229865,02-6248-2828
,"서울특별시 강남구 선릉로 427, 7층 (역삼동)",가은치유한의원,37.5030793,127.0493711,02-557-8845
서울특별시 중랑구 묵동 170-1 묵동자이아파트,"서울특별시 중랑구 동일로 932, 202동 210,211,302호 (묵동, 묵동자이아파트)",키즈웰소아청소년과의원,37.61377890000001,127.0775237,02-972-7975
서울특별시 금천구 시흥동 830번지,"서울특별시 금천구 금하로 711, 2,5층 (시흥동)",서울삼성의원,37.4511319,126.9090179,02-802-1309
서울특별시 중랑구 망우동 470-11 기성빌딩,"서울특별시 중랑구 망우로 412, 기성빌딩 1층 (망우동)",서울우림365의원,37.5990923,127.0978849,02-2088-2566
서울특별시 동작구 상도동 370-2,"서울특별시 동작구 상도로 181, 1층 (상도동)",효성한의원,37.5049644,126.9388269,02-6448-0467
"서울특별시 송파구 신천동 7번지 장미아파트 에이상가  4층 1,6,11,12,13,14,15호 1동","서울특별시 송파구 올림픽로35길 124, 장미아파트 에이상가 1동 4층 1,6,11,12,13,14,15호 (신천동)",윤석중내과의원,37.5188846,127.0992806,02-421-9357
"서울특별시 강북구 번동 242번지 4호 주공1단지 201,202호","서울특별시 강북구 한천로105길 7, 201, 202호 (번동, 주공1단지)",황소아청소년과의원,37.6261182,127.0470415,02-980-2458
"서울특별시 강남구 신사동 561-31 신웅타워2, 3층","서울특별시 강남구 도산대로 157, 신웅타워2 3층 (신사동)",모프로의원,37.519028,127.0256272,02-546-5824
서울특별시 중랑구 중화동 208-33 중화동주상복합,"서울특별시 중랑구 망우로 203, 2층 203호 (중화동, 중화동주상복합)",중랑연세내과의원,37.5939932,127.0750236,02-6956-1757
서울특별시 중구 서소문동 26번지 경서빌딩 2층,"서울특별시 중구 서소문로 129, 경서빌딩 2층 (서소문동)",민트정신건강의학과의원,37.5638282,126.9752055,02-3789-7359
서울특별시 금천구 독산동 1038번지 27호,"서울특별시 금천구 독산로 210, 4층 (독산동)",독산모아치과의원,37.4657486,126.9023403,02-894-7579
서울특별시 강동구 성내동 590번지 삼성아파트 상가,"서울특별시 강동구 풍성로 136 (성내동, 삼성아파트 상가)",부강한의원,37.5307363,127.1259006,02-474-4783
"서울특별시 중구 신당동 369-101 3,4","서울특별시 중구 다산로 128-1, 3,4층 (신당동)",약수바른정형외과의원,37.5551618,127.0111912,02-2236-1030
서울특별시 중구 신당동 361-24 한미빌딩,"서울특별시 중구 다산로 111, 한미빌딩 1층 (신당동)",조후영한의원,37.5539671,127.0098353,02-6080-1507
,"서울특별시 강서구 화곡로21길 87, 해온빌딩 2층 (화곡동)",시우한의원,37.5446698,126.8359012,02-6928-7582
서울특별시 서초구 반포동 18-4 래미안 퍼스티지 신반포역상가 207호,"서울특별시 서초구 신반포로 100, 래미안 퍼스티지 신반포역상가 2층 207호 (반포동)",청아한의원,37.5030753,126.9956677,02-536-1336
서울특별시 성동구 송정동 66-196 송정빌딩,"서울특별시 성동구 광나루로 323, 송정빌딩 2층 (송정동)",연세성동가정의학과의원,37.5484318,127.0656747,02-499-3729
서울특별시 서초구 서초동 1305-5 주류성빌딩,"서울특별시 서초구 강남대로 435, 주류성빌딩 14층 (서초동)",강남리슬림의원,37.5011395,127.0255474,02-536-3962
서울특별시 중구 필동2가 37-9 2층,"서울특별시 중구 퇴계로 222, 2층 (필동2가)",필선한의원,37.5587734,126.9947209,02-2275-0089
서울특별시 영등포구 대림동 1082-13,"서울특별시 영등포구 디지털로 343, 3,4층 (대림동)",이덕기내과의원,37.4887575,126.8988946,02-834-8875
,"서울특별시 강남구 선릉로161길 21, 2층 (신사동)",약연재한의원,37.5273565,127.0385342,-3448-1020
서울특별시 관악구 신림동 1653,"서울특별시 관악구 조원로 20, 2층 (신림동)",구로디지털정형외과의원,37.4832218,126.9046196,02-869-1020
,"서울특별시 동대문구 고산자로 441, 1층 (제기동)",경희대운한의원,37.5790319,127.0380249,02-962-1700
서울특별시 서초구 잠원동 29-18,"서울특별시 서초구 신반포로47길 66, 지하1층~5층 (잠원동)",바람부는날에도 성형외과의원,37.5132294,127.0184801,02-540-0700
서울특별시 강남구 신사동 638-13 쌍봉빌딩 3층,"서울특별시 강남구 언주로 874, 쌍봉빌딩 3층 (신사동)",압구정노트정형외과의원,37.5285405,127.0340485,02-517-7600
서울특별시 송파구 신천동 29번지 롯데월드타워앤드롯데월드몰,"서울특별시 송파구 올림픽로 300, 롯데월드타워앤드롯데월드몰 11층 (신천동)",가인월드타워치과의원,37.513947,127.1049285,02-3213-4711
,"서울특별시 중랑구 면목로 334-1, 배스킨라빈스 2층 (면목동)",서울감동치과의원,37.5818728,127.0888265,02-6215-2828
서울특별시 서대문구 홍제동 253-3,"서울특별시 서대문구 통일로 440, 2층 1호 (홍제동)",굿웰스의원,37.5790787,126.9540401,02-394-2007
서울특별시 영등포구 신길동 4662,"서울특별시 영등포구 신길로 42, 2층 (신길동)",서울드림의원,37.4964769,126.9086271,02-834-5578
서울특별시 강남구 역삼동 831-24 예미프레스티지,"서울특별시 강남구 강남대로78길 12, 예미프레스티지 3층층 (역삼동)",아인뷰티의원,37.4948619,127.0303579,
서울특별시 서대문구 대현동 45-8 유인빌딩,"서울특별시 서대문구 신촌로 183, 유인빌딩 2층 (대현동)",연세아름다운산부인과의원,37.5570769,126.9464205,02-363-7379
서울특별시 강동구 암사동 488-31,"서울특별시 강동구 구천면로 321, 1층 (암사동)",서울돌봄치과의원,37.5482313,127.1353065,02-6949-5700
서울특별시 영등포구 문래동3가 82-20 문래비즈타워,"서울특별시 영등포구 문래로 89, 문래비즈타워 601,602호 (문래동3가)",작은별소아치과의원,37.51968129999999,126.8919565,02-6956-4375
,"서울특별시 강서구 방화대로47가길 70-1, 한서자기 2층 (방화동)",한서자기한의원,37.57937039999999,126.8146089,02-2666-7275
서울특별시 구로구 신도림동 337 신도림1차푸르지오 101동,"서울특별시 구로구 경인로 661, 신도림1차푸르지오 101동 13층 1307~1326호 (신도림동)",가이치과의원,37.5093957,126.8877258,02-886-2877
서울특별시 강서구 내발산동 719-6 송화쇼핑센터,"서울특별시 강서구 강서로 267, 송화쇼핑센터 3층 (내발산동)",연세김종현비뇨의학과의원,37.54909,126.8359839,02-2665-8270
서울특별시 서초구 서초동 1307-21 BLOCK77,"서울특별시 서초구 서초대로77길 17, BLOCK77 7층 701호 (서초동)",본연성형외과의원,37.4997323,127.0255849,
"서울특별시 성북구 동소문동3가 9번지 지상4, 5층","서울특별시 성북구 동소문로 34, 지상4,5층 (동소문동3가, 연진빌딩)",맘편한내과의원,37.5885904,127.0070327,02-953-7537
서울특별시 성동구 금호동1가 628 성산빌딩,"서울특별시 성동구 난계로 32, 성산빌딩 4층 401호 (금호동1가)",서울척편한마취통증의학과의원,37.555133,127.0250297,02-2292-7939
,"서울특별시 강남구 압구정로 443, 이유덕 부티크 5층 (청담동)",티엘씨청담의원,37.5267287,127.0459412,02-3444-0101
,"서울특별시 관악구 남부순환로 1912, 3층 (봉천동)",이진내과의원,37.4775126,126.9616489,02-6959-0367
서울특별시 송파구 잠실동 183-7 AW TOWER,"서울특별시 송파구 백제고분로7길 53, AW TOWER 5층 (잠실동)",잠실원치과의원,37.5110025,127.0848302,02-424-2275
서울특별시 강서구 등촌동 631-5 NH서울축산농협 NH서울타워,"서울특별시 강서구 양천로 570, NH서울축산농협 NH서울타워 2층 206-207호 (등촌동)",서울열린수치과의원,37.55693790000001,126.8621814,02-3662-2875
서울특별시 중랑구 면목2동 183번지 68호 2층,"서울특별시 중랑구 동일로109길 49, 2층 (면목동)",아나파의원,37.5914147,127.077489,02-496-7579
,"서울특별시 영등포구 선유로 63, 604호 (문래동6가, EEU동신타워)",성모참플러스정형외과의원,37.5196457,126.8890424,02-6952-5201
서울특별시 관악구 신림동 1422-10 대현빌딩,"서울특별시 관악구 남부순환로 1631, 대현빌딩 2층 (신림동)",유디치과의원,37.484764,126.931804,02-877-8300
서울특별시 서초구 잠원동 37번지 7호 성한빌딩,"서울특별시 서초구 강남대로 557, 성한빌딩 5층 (잠원동)",스노우치과의원,37.5115825,127.020595,02-1599-1801
"서울특별시 강남구 신사동 501 신사미타워, 3층","서울특별시 강남구 강남대로 616, 신사미타워 3층 (신사동)",제이디의원,37.5168431,127.0197682,02-523-7581
서울특별시 금천구 시흥동 1013 벽산5단지아파트 상가1동 2층 212~217호,"서울특별시 금천구 금하로 816, 상가1동 2층 212~217호 (시흥동, 벽산5단지아파트)",의사랑의원,37.4480497,126.9183272,02-6956-7554
서울특별시 은평구 신사동 16번지 22호,"서울특별시 은평구 갈현로 15, 2층 (신사동)",바른우리치과의원,37.5993301,126.9099781,02-6380-2828
서울특별시 송파구 장지동 880번지 1호 성희프라자,"서울특별시 송파구 위례광장로 199, 성희프라자 4층 404~405호 (장지동)",위례선가정의학과의원,37.4817325,127.1425671,02-431-8250
,"서울특별시 성동구 왕십리로 360, 상왕십리경희한의원 1,2층 (도선동)",상왕십리경희한의원,37.5641391,127.0304849,02-6952-7507
서울특별시 서초구 반포동 0 원베일리 스퀘어,"서울특별시 서초구 반포대로 291, 원베일리 스퀘어 3층 301~306호 (반포동)",연세최앤김내과의원,37.4955764,127.0056948,02-6221-7775
,"서울특별시 강서구 강서로62길 98, 3층 (등촌동, 신한은행등촌점)",느티나무한의원,37.5616643,126.8450092,02-3663-1577
서울특별시 마포구 노고산동 57-4 신촌카리스빌딩,"서울특별시 마포구 신촌로 92, 신촌카리스빌딩 3층 (노고산동)",김성전?김시찬이비인후과의원,37.5551342,126.9356458,02-324-9127
,"서울특별시 강북구 삼양로 183-1, 1~4 층 (미아동)",청구경희한의원,37.6202899,127.0206288,02-984-1075
서울특별시 영등포구 대림동 1035번지 11호,서울특별시 영등포구 디지털로53길 14-1 (대림동),금강한의원,37.491915,126.9005599,02-835-0118
서울특별시 성북구 동소문동6가 147 산맥프라자,"서울특별시 성북구 아리랑로 9, 산맥프라자 4층 (동소문동6가)",다정해정신건강의학과의원,37.593531,127.0142559,02-924-7979
서울특별시 강남구 신사동 584-1 유림아트홀 402호,"서울특별시 강남구 압구정로28길 49, 유림아트홀 4층 402호 (신사동)",유진스의원,37.5232923,127.027693,02-516-3070
서울특별시 강남구 도곡동 527-3 도곡렉슬상가,"서울특별시 강남구 선릉로 225, 도곡렉슬상가 4층 405-1-2, 405-2호 (도곡동)",대치서울이비인후과의원,37.4953404,127.0526522,02-6959-2605
,"서울특별시 송파구 송파대로 141, 르피에드 213호,216~222호 (문정동)",180(일팔공)한의원,37.4862105,127.121888,02-430-0180
서울특별시 강서구 방화동 567-4 삼정아파트,"서울특별시 강서구 방화동로 126, 2층 208,210~213호 (방화동, 삼정아파트)",우리연세내과의원,37.56655629999999,126.8111133,02-2666-3975
서울특별시 서초구 서초동 1337-17 보원빌딩,"서울특별시 서초구 사임당로 180, 보원빌딩 2층 205호 (서초동)",강남스탠다드정형외과의원,37.4925111,127.0292999,02-587-8884
,"서울특별시 중랑구 양원역로10길 17, B동 5층 501~505호 제이메디컬 (망우동)",연세숲내과의원,37.6014134,127.1083825,02-496-0779
서울특별시 강남구 신사동 610-3 아크힐즈16,"서울특별시 강남구 압구정로30길 16, 아크힐즈16 지층,2층,7층 (신사동)",에이준재활의학과의원,37.5264725,127.0290437,02-545-1979
서울특별시 서초구 서초동 1317-14,"서울특별시 서초구 서초대로77길 5, 7층 (서초동)",비앤영의원,37.4983568,127.0264406,02-593-1003
,"서울특별시 강남구 강남대로 250, 심현빌딩 2층 (도곡동)",두청한의원,37.4858657,127.0338814,02-574-1075
서울특별시 강남구 신사동 528-3 덕산빌딩,"서울특별시 강남구 압구정로 108, 덕산빌딩 307 (신사동)",이근국치과의원,37.5228465,127.02055,540-0244
서울특별시 광진구 능동 236-1,"서울특별시 광진구 천호대로 576, 2층 (능동)",정이든경희한의원,37.5558723,127.0818222,02-3437-3737
,"서울특별시 동대문구 장한로 166, 2층 (장안동)",여해한의원,37.5751227,127.0722094,02-482-7022
서울특별시 강남구 역삼동 816번지,"서울특별시 강남구 강남대로 422, 9층 (역삼동)",고르다치과의원,37.5003747,127.0269158,02-557-7520
서울특별시 강동구 강일동 70-8 성산타워2,"서울특별시 강동구 아리수로93나길 80, 성산타워2 405~410호 (강일동)",강일바른내과의원,37.5721986,127.1742256,02-0000-0000
서울특별시 동대문구 회기동 346-18 회기역 한일베라체캠퍼스,"서울특별시 동대문구 이문로 37, 2층 203호 (회기동, 회기역 한일베라체캠퍼스)",경희채움정신건강의학과의원,37.5908177,127.0560569,02-968-1070
,"서울특별시 서대문구 통일로 474, 2층 (홍제동)",천지인궁한의원,37.5906016,126.942539,02-391-7771
서울특별시 송파구 문정동 642-3 문정역SKV1,"서울특별시 송파구 법원로 128, 문정역SKV1 A동 208, 209호 (문정동)",문정유외과의원,37.4886192,127.13372,02-401-1220
서울특별시 중랑구 면목동 611-4,"서울특별시 중랑구 면목로 320, 1층 (면목동)",서울일등치과의원,37.58036329999999,127.0886014,02-6287-2875
,"서울특별시 영등포구 국회대로62길 15, 지하1층 2호 (여의도동)",리즈한의원,37.5272327,126.9167886,02-782-8575
서울특별시 강남구 청담동 141-10,"서울특별시 강남구 도산대로81길 55, 103호 (청담동)",마름모한의원,37.5272322,127.0455016,02-518-8155
서울특별시 서초구 방배동 1751 안석빌딩,"서울특별시 서초구 동작대로 132, 안석빌딩 4층 (방배동)",이수톡정신건강의학과의원,37.488316,126.9825957,
서울특별시 동대문구 휘경동 71-1,"서울특별시 동대문구 망우로 123, 5층 (휘경동)",다시봄의원,37.5917759,127.0664945,02-2247-7282
서울특별시 송파구 방이2동 159번지 6호,서울특별시 송파구 가락로 277 (방이동),방이내과의원,37.5126327,127.1195084,02-423-3541
서울특별시 종로구 당주동 128-27 동원빌딩,"서울특별시 종로구 새문안로3길 15, 동원빌딩 1층 (당주동)",평화로운치과의원,37.5717461,126.9723187,02-776-2875
서울특별시 노원구 상계동 603-2 하이웰빙상가,"서울특별시 노원구 상계로1길 14-11, 하이웰빙상가 501층 (상계동)",마을의원,37.6570026,127.0618733,02-937-5369
서울특별시 용산구 남영동 120번지 2호,"서울특별시 용산구 한강대로 256, 5층 (남영동)",유디남영치과의원,37.5413392,126.9735464,02-798-0089
"서울특별시 강남구 청담동 48-7 501,502호","서울특별시 강남구 삼성로 772, 501,502호 (청담동)",블루밍치과의원,37.5236221,127.04805,514-2875
,"서울특별시 서초구 방배로 225, 3,6,지하1층 (방배동, 남전빌딩)",가야내과의원,37.4931814,126.9898381,02-537-1121
서울특별시 금천구 가산동 371-47 이노플렉스1차 201호,"서울특별시 금천구 가산디지털1로 151, 이노플렉스1차 201호 (가산동)",예예의원,37.4788898,126.8813412,02-838-0675
서울특별시 강동구 길동 411-1,"서울특별시 강동구 양재대로 1466, 4층 (길동)",디딤재활의학과의원,37.5367409,127.1399445,02-485-7588
서울특별시 서초구 반포동 91-1,"서울특별시 서초구 서래로8길 6, 2층 (반포동)",이을정형외과의원,37.4985515,126.9986397,02-533-0119
"서울특별시 중구 신당동 150-2 4,5층","서울특별시 중구 퇴계로 452, 4,5층 (신당동)",서울휴재활의학과의원,37.5588566,126.9776481,02-2238-8884
서울특별시 강남구 수서동 724번지 지하2층 108호,"서울특별시 강남구 광평로 280, 지하2층 108호 (수서동, 로즈데일오피스텔)",메이퓨어의원,37.4873425,127.1030015,02-451-9960
서울특별시 중구 신당동 150-12,"서울특별시 중구 퇴계로 452-1, B동 2층 (신당동)",서울닥터한치과의원,37.5654292,127.0134917,02-2235-2875
서울특별시 성북구 장위동 323 꿈의숲 아이파크,"서울특별시 성북구 돌곶이로40길 46, 상가1동 1층 5호일부,6호 (장위동, 꿈의숲 아이파크)",푸른숲소아청소년과의원,37.6191535,127.0486531,02-943-0777
서울특별시 서초구 반포동 723-1 도충빌딩,"서울특별시 서초구 강남대로 519, 도충빌딩 5층 (반포동)",성품성형외과의원,37.5083306,127.0220689,02-549-0077
서울특별시 강동구 강일동 70-8 성산타워2,"서울특별시 강동구 아리수로93나길 80, 성산타워2 3층 (강일동)",온빛치과의원,37.5721986,127.1742256,02-428-2879
,"서울특별시 강동구 양재대로 1477, 2층, 3층 (길동, 삼환빌딩)",리드힐마취통증의학과의원,37.5377869,127.1396906,02-486-4200
서울특별시 중구 서소문동 48-2 대영빌딩,"서울특별시 중구 서소문로 113, 대영빌딩 1층 (서소문동)",본라인한의원 시청역점,37.5631194,126.9735192,02-318-7119
서울특별시 동작구 사당동 1031-21,"서울특별시 동작구 동작대로 25-1, 3층 (사당동)",신통가정의학과의원,37.4787632,126.980988,02-3487-3480
서울특별시 송파구 거여동 567,"서울특별시 송파구 양산로 38, 5층 (거여동)",서울열린치과의원,37.492215,127.1443191,02-409-2879
"서울특별시 마포구 동교동 166-13 삼양세븐스프링스 4,6층","서울특별시 마포구 양화로18길 3, 삼양세븐스프링스 4층,6층 (동교동)",리엔장의원,37.557036,126.9245496,02-3477-3625
서울특별시 서초구 서초동 1317-14,"서울특별시 서초구 서초대로77길 5, 4층 (서초동)",강남비비의원,37.4983568,127.0264406,
,"서울특별시 강남구 테헤란로 316, 메트라이프타워 2층 (역삼동)",굿본재활의학과의원,37.5031609,127.0456389,02-6326-2000
서울특별시 구로구 고척동 76번지 147호,"서울특별시 구로구 중앙로 10-15 (고척동, 구로성심병원별관)",구로성심치과의원,37.4996208,126.866356,02-2612-2275
,"서울특별시 강남구 개포로 512, 개포종합상가 201호 (개포동)",경희유안한의원,37.4893133,127.0689409,02-6203-1075
,"서울특별시 구로구 디지털로26길 111, 제이앤케이디지털타워 지하012호 (구로동)",본라인한의원 구로디지털점,37.4824224,126.89703,02-6741-9991
,"서울특별시 마포구 월드컵로 80, 서교양경회관 2층 (서교동)",망원365 한의원,37.5562782,126.9104534,02-6951-1345
서울특별시 강남구 논현동 164-1,"서울특별시 강남구 강남대로 518, 3층, 4층 (논현동)",하철원정형외과의원,37.5084428,127.023085,02-517-1110
,"서울특별시 강동구 올림픽로 783, 3층 (암사동)",안원식경희구기맹아한의원,37.5511457,127.1276012,02-766-3087
서울특별시 강북구 수유동 229-5 정우빌딩,"서울특별시 강북구 도봉로 333, 정우빌딩 3층 (수유동)",삼성봄안과의원,37.6378691,127.0250254,02-903-0999
,"서울특별시 종로구 대학로 19, 2층 (연지동)",기분좋은치과의원,37.5729155,127.0016073,02-744-3050
서울특별시 강남구 역삼동 765-8 SJ빌딩,"서울특별시 강남구 선릉로 309, SJ빌딩 4층 401호 (역삼동)",레이디산부인과의원,37.5075986,127.0360211,02-556-7856
서울특별시 송파구 잠실동 22번지 6호 리센츠상가 4층 4B19호,"서울특별시 송파구 올림픽로 145 (잠실동, 리센츠상가 4B 19호)",빛치과의원,37.5119601,127.0869604,02-419-0419
서울특별시 강남구 역삼동 822-5 대건빌딩 301호,"서울특별시 강남구 테헤란로 111, 대건빌딩 301호 (역삼동)",마음소담정신건강의학과의원,37.4987197,127.0293613,
서울특별시 서초구 서초동 1656번지 4호 롯데캐슬메디치4층(401-2호),"서울특별시 서초구 서초중앙로 110, 401호 (서초동, 롯데케슬메디치)",의료법인명경의료재단꽃마을치과의원,37.4915908,127.0145123,3475-7110
서울특별시 서초구 잠원동 21-2,"서울특별시 서초구 강남대로 601, 4층 (잠원동)",백점성형외과의원,37.5152794,127.0193498,02-2038-8383
서울특별시 마포구 동교동 159번지 1호 상진빌딩 4층,"서울특별시 마포구 양화로 165, 4층 (동교동, 상진빌딩)",데이뷰의원,37.5571739,126.923614,"02-312-1755,6"
서울특별시 강남구 청담동 85번지 16호 3층,"서울특별시 강남구 도산대로55길 29, 3층 (청담동)",더마스터의원,37.52543,127.0405017,02-563-7080
서울특별시 관악구 신림동 668번지 11호,"서울특별시 관악구 난곡로 84, 지층 (신림동)",해미소한의원,37.4628666,126.9194187,02-858-8588
서울특별시 노원구 상계동 341-5,"서울특별시 노원구 상계로 84, 4층 401호 (상계동)",루나크의원,37.6563246,127.0643071,
서울특별시 강남구 신사동 582-10 A857,"서울특별시 강남구 논현로 857, A857 5층 (신사동)",하일리의원,37.5252412,127.0280596,02-6207-7006
서울특별시 서초구 서초동 1695-13 요셉빌딩,"서울특별시 서초구 서초중앙로24길 11, 요셉빌딩 3층 (서초동)",서울미래치과의원,37.494957,127.0149147,02-6242-2775
,"서울특별시 영등포구 대림로35가길 7-1, 지하1,지상2,3층 (대림동)",휘담메디한의원,37.4982115,126.8978736,02-846-1460
서울특별시 마포구 도화동 556 SK허브그린 201호,"서울특별시 마포구 마포대로 73, SK허브그린 2층 201호 (도화동)",페이스피부과의원,37.5405986,126.9540211,02-6951-0888
서울특별시 성북구 종암동 3-1343,"서울특별시 성북구 종암로 123, 3층 (종암동)",종암본정형외과의원,37.6009919,127.0331641,02-921-1100
,서울특별시 성북구 화랑로 207 (장위동),보림한의원,37.6179141,127.050263,02-918-9671
서울특별시 강동구 천호동 315번지 29호,서울특별시 강동구 올림픽로 742 (천호동),강동재생한의원,37.5473284,127.1268374,02-499-7579
서울특별시 송파구 문정동 652-3 르피에드,"서울특별시 송파구 송파대로 141, 르피에드 2층 201~211호 (문정동)",파트너정형외과의원,37.485227,127.117858,02-430-1410
서울특별시 동작구 대방동 501대림쇼핑406,"서울특별시 동작구 여의대방로 250, 406층 (대방동, 대림쇼핑타운)",윤기영소아청소년과의원,37.5087076,126.9245319,02-824-1981
서울특별시 성동구 행당동 286번지 5호 한동타워,"서울특별시 성동구 왕십리로 315, 한동타워 10층 (행당동)",애플산부인과의원,37.561722,127.0342494,02-2298-6200
서울특별시 강북구 미아동 189번지 40호,"서울특별시 강북구 도봉로 256, 2층 (미아동, 덕산빌딩)",넘버원마취통증의학과의원,37.6313584,127.0244995,02-989-6677
서울특별시 강동구 성내동 244번지 3호,서울특별시 강동구 천호대로 1124 (성내동),최두혁내과의원,37.5304933,127.128992,02-472-7007
,"서울특별시 서대문구 신촌로 183, 유인빌딩 5층 (대현동)",서울올바른정형외과의원,37.5570769,126.9464205,02-363-7575
서울특별시 강서구 등촌동 717 그레이스힐,"서울특별시 강서구 양천로 470, 그레이스힐 315호 (등촌동)",새이처럼치과의원,37.561922,126.8525375,02-3663-2040
서울특별시 은평구 불광동 311-13 메트로타워,"서울특별시 은평구 통일로 856, 메트로타워 304호 (불광동)",연신내메이퓨어의원,37.6196342,126.9214784,389-9980
서울특별시 양천구 목동 405번지 276호,"서울특별시 양천구 오목로 312 (목동, 제일빌딩)",이상치과의원,37.5247121,126.8720188,2646-2825
서울특별시 중구 남창동 169번지 2호,"서울특별시 중구 퇴계로 36 (남창동, 삼선빌딩 2층)",남대문명동정형외과의원,37.5572304,126.9769977,02-779-8176
"서울특별시 양천구 신정동 922-1 제이클래스목동주상복합, 3층","서울특별시 양천구 오목로 147, 3층 (신정동, 제이클래스목동주상복합)",서울메디탑내과의원,37.5238539,126.8584224,02-2603-7582
,"서울특별시 강남구 압구정로30길 12, 2층 (신사동)",권한의원,37.5266823,127.0290724,02-713-7582
서울특별시 강동구 천호동 401번지 5호 한양메디스퀘어,"서울특별시 강동구 구천면로 233, 한양메디스퀘어 8,9층 (천호동)",영림내과의원,37.5416648,127.1299092,02-476-1615
서울특별시 서초구 방배동 443-3,"서울특별시 서초구 동작대로 24, 2층 (방배동)",메이퓨어의원,37.4786575,126.9821778,02-597-9996
서울특별시 서초구 방배동 445-4,"서울특별시 서초구 방배천로 5-1, 5층 (방배동)",사당365한의원,37.4769904,126.9824871,02-588-9500
서울특별시 성북구 장위동 64-121,"서울특별시 성북구 화랑로 245, 2,3층 (장위동)",올바른마취통증의학과의원,37.6108018,127.0564101,02-943-8274
서울특별시 강북구 미아동 465번지 47호 송원빌딩,"서울특별시 강북구 숭인로 63, 송원빌딩 4층 (미아동)",스노우 치과의원,37.61268,127.0286667,02-989-7528
,"서울특별시 강동구 천호대로 1131, 거산 유팰리스 3,4층 (길동)",강동아이비의원,37.5347879,127.1372363,02-484-7525
,"서울특별시 강남구 학동로 165, 2층 213호 (논현동, 마일스디오빌)",올리브한의원,37.51388499999999,127.0288858,02-3445-1075
서울특별시 강남구 대치동 66 쌍용대치종합상가,"서울특별시 강남구 영동대로 210, 쌍용대치종합상가 2층 201A호 (대치동, 쌍용아파트)",서울연세의원,37.4980827,127.0712194,02-418-7731
서울특별시 강북구 수유동 229-5 정우빌딩,"서울특별시 강북구 도봉로 333, 정우빌딩 4층 (수유동)",수유탑내과의원,37.6378691,127.0250254,02-900-7588
서울특별시 도봉구 방학1동 703번지 17호 우리들메디빌딩 5층,"서울특별시 도봉구 도봉로 677, 5층 (방학동, 우리들메디빌딩)",서울리즈치과의원,37.6649325,127.0423055,3494-1230
서울특별시 강남구 논현동 235-11 센트럴타워,"서울특별시 강남구 봉은사로 213, 센트럴타워 2층 (논현동)",오늘그린정신건강의학과의원,37.5080436,127.035373,02-518-7972
,"서울특별시 강동구 양재대로 1620, 3층 (명일동)",웰비뇨기과의원,37.5500491,127.1440775,427-7876
서울특별시 서대문구 충정로2가 5-4 공화당빌딩,"서울특별시 서대문구 통일로 131, 공화당빌딩 5층 (충정로2가)",서대문연세이비인후과의원,37.5648525,126.9641834,02-364-9925
서울특별시 관악구 신림동 1513-2 쥬얼리S타워,"서울특별시 관악구 호암로 605, 쥬얼리S타워 1~3층 (신림동)",백세튼튼정형외과의원,37.4713876,126.9336145,02-876-7575
서울특별시 서초구 잠원동 72-3 태남홀딩스 307호,"서울특별시 서초구 잠원로3길 40, 태남홀딩스 307호 (잠원동)",삼성공감정신건강의학과의원,37.5081523,127.0037071,02-599-3303
서울특별시 강남구 청담동 84-7 공신진흥빌딩 6층,"서울특별시 강남구 선릉로 830, 공신진흥빌딩 6층 (청담동)",리비안의원,37.5259575,127.0404646,02-546-0159
,"서울특별시 강서구 강서로45길 13, 선화빌딩 (화곡동)",강산한의원,37.5478141,126.835383,02-2608-7510
서울특별시 성동구 도선동 46 W에비뉴타워,"서울특별시 성동구 왕십리로 320, W에비뉴타워 403호 (도선동)",삼성제이여성의원,37.5623434,127.0343699,02-2294-7575
서울특별시 관악구 남현동 산 100-34,"서울특별시 관악구 과천대로 851, 1층 (남현동, 한울아파트)",방패의원,37.4615726,126.9817793,02-524-1730
서울특별시 강남구 신사동 585-15 B&S빌딩,"서울특별시 강남구 논현로 823, B&S빌딩, 2층 (신사동)",쉬즈웰산부인과의원,37.5219177,127.0279605,02-564-2211
,"서울특별시 광진구 아차산로 361, 2층 (자양동)",구의메트로신경외과의원,37.5370275,127.0829276,02-3436-9933
서울특별시 성북구 동소문동4가 260 드림트리빌딩,"서울특별시 성북구 동소문로 63, 드림트리빌딩 1층 101호, 5층 (동소문동4가)",서울제이내과의원,37.5917268,127.0120766,02-922-1050
,서울특별시 은평구 연서로 253-9 (불광동),연서정형외과의원,37.6201112,126.9228324,02-3157-0119
서울특별시 강서구 마곡동 797번지 12호 루체브릿지,"서울특별시 강서구 마곡동로4길 23, 3층 302호 (마곡동)",연세유앤아이치과의원,37.55965399999999,126.8362076,02-3662-2877
서울특별시 관악구 봉천동 926번지 33호,"서울특별시 관악구 남부순환로 1733, 5층 (봉천동, 정민빌딩)",화인마취통증의학과의원,37.4825912,126.9427599,02-6264-2215
서울특별시 서초구 방배동 3005번지 4층,"서울특별시 서초구 동작대로 90, 4층 (방배동)",방배도원한의원,37.4845483,126.9824735,581-3537
서울특별시 마포구 서교동 441번지 6호 아침뜨락빌딩 7층,"서울특별시 마포구 월드컵로 80, 7층 (서교동, 아침뜨락빌딩)",마포의료복지사회적협동조합 무지개의원,37.556146,126.9104209,02-326-0611
서울특별시 강남구 수서동 715번지 효성노틸러스빌딩 2층일부,"서울특별시 강남구 광평로 281 (수서동, 2층일부)",강남베스트내과의원,37.4880028,127.1026639,02-6181-3855
,"서울특별시 서초구 서초대로38길 12, 4층 (서초동, 마제스타시티,힐스테이트서리풀)",서울큰사랑치과의원,37.490049,127.0056948,02-6254-2875
,"서울특별시 성북구 길음로 33, 상가B동 지1층 제4호,제5호 (길음동, 길음뉴타운)",삼성맑은의원한의원,37.6075609,127.0179449,02-912-3500
서울특별시 송파구 삼전동 111번지 3호 301호,"서울특별시 송파구 석촌호수로 160, 301호 (삼전동, 수연빌딩)",삼성정내과의원,37.5067207,127.0947989,02-418-1717
,"서울특별시 금천구 독산로 131-1, 2층 (시흥동)",편백한의원,37.4590595,126.9048751,02-2088-1700
서울특별시 강남구 신사동 578-4,"서울특별시 강남구 압구정로28길 14, 4층 (신사동)",림피부과의원,37.5257387,127.0275903,02-545-3462
서울특별시 서초구 신원동 462-38,"서울특별시 서초구 본마을4길 1, 1층 (신원동)",김시효한의원,37.453481,127.0551052,02-542-1090
서울특별시 서초구 신원동 462-38,"서울특별시 서초구 본마을4길 1, 1층 (신원동)",김시효의원,37.453481,127.0551052,542-1090
서울특별시 노원구 상계동 711번지 13호 삼양빌딩 401호,"서울특별시 노원구 동일로 1417, 401호 (상계동, 삼양빌딩)",미유여성외과의원,37.6550933,127.0599595,930-7878
,"서울특별시 강서구 공항대로 281, 2층 (등촌동)",해온정한의원,37.5575223,126.8559611,02-3665-3858
서울특별시 송파구 거여동 37번지 6호,"서울특별시 송파구 거마로 4, 4,5,6층 (거여동)[*미고시]",굿플란트치과의원,37.4933585,127.1448662,02-430-9998
,"서울특별시 강남구 도곡로63길 27, 5층 (대치동, 시온빌딩)",슬림미한의원,37.4987844,127.0535968,02-554-0966
서울특별시 강남구 신사동 583 EGI빌딩,"서울특별시 강남구 논현로 843, EGI빌딩 2,4층 (신사동)",아이웰성형외과의원,37.5244195,127.0279821,02-542-2017
서울특별시 은평구 진관동 74번지 휴먼프라자 I,"서울특별시 은평구 진관2로 19, 휴먼프라자 I 305호 (진관동)",하늘마음한의원,37.6347994,126.9196487,384-8575
서울특별시 강남구 삼성동 144번지 29호 KB우준타워 5층,"서울특별시 강남구 테헤란로 447, KB우준타워 5층 (삼성동)",삼성웰재활의학과의원,37.5070586,127.0561353,0507-1327-1630
서울특별시 강남구 대치동 1004 동일타워,"서울특별시 강남구 테헤란로114길 38, 동일타워 지하1층 (대치동)",하트스캔치과의원,37.5071423,127.066996,539-7526
서울특별시 서초구 서초동 1307-21 BLOCK77,"서울특별시 서초구 서초대로77길 17, BLOCK77 6층 (서초동)",클리어서울안과의원,37.4997323,127.0255849,02-599-7779
서울특별시 영등포구 여의도동 23-3 하이투자증권,"서울특별시 영등포구 여의대로 66, 하이투자증권 지하1,1층 (여의도동)",여의도본라인한의원,37.5245007,126.9237057,02-761-8875
,서울특별시 도봉구 도봉로 683 (방학동),포도나무한의원,37.6659811,127.0410281,02-956-7582
서울특별시 노원구 상계동 111번지 475호 명륜빌딩,"서울특별시 노원구 상계로 309-1, 명륜빌딩 (상계동)",고려의원,37.6708294,127.0799844,02-3391-7215
"서울특별시 강남구 논현동 1번지 3호 렉스타워 12, 13층","서울특별시 강남구 도산대로 108, 12, 13층 (논현동, 렉스타워)",티에스성형외과의원,37.5162574,127.0206194,512-7580
서울특별시 구로구 구로동 413번지 34호,"서울특별시 구로구 구로동로 153, 이스턴프라자 3~5층 (구로동)",고려튼튼외과의원,37.4923467,126.8833453,02-857-8511
서울특별시 성북구 돈암동 48번지 4호 2층,"서울특별시 성북구 동소문로 181, 2층 (돈암동)",성심바른치과의원,37.598405,127.021425,02-922-2225
서울특별시 서초구 우면동 우면동 725번지 네이처프라자 404호,"서울특별시 서초구 태봉로 62, 404호 (우면동, 네이처프라자)",소소아청소년과의원,37.4640472,127.0250245,573-1119
,"서울특별시 노원구 동일로 1363, 4층 (상계동, 명지프라자빌딩)",달라스치과의원,37.6503872,127.0613201,02-931-5165
서울특별시 서대문구 홍제동 158-33 연세24시사우나,"서울특별시 서대문구 통일로 413, 연세24시사우나 3층 301호 (홍제동)",홍제바른안과의원,37.5900422,126.9439585,02-379-3787
,"서울특별시 양천구 오목로 299, 5층 (목동, 트라팰리스이스턴에비뉴)",함소아한의원,37.5255521,126.8712819,-1544-1065
서울특별시 강남구 신사동 599 압구정빌딩,"서울특별시 강남구 논현로 842, 압구정빌딩 8층 (신사동)",웰스피부과의원,37.52400009999999,127.0287323,02-542-2372
,"서울특별시 마포구 성미산로 195, 2층 (연남동)",연남경희한의원,37.5627538,126.9268573,02-335-1075
서울특별시 금천구 시흥1동 883번지 5호 서평빌딩 4층,"서울특별시 금천구 시흥대로 230, 4층 (시흥동, 서평빌딩)",고려고든정형외과의원,37.4544206,126.9012396,803-9700
서울특별시 서초구 서초동 1542번지 1호 동일하이빌 203~206호,"서울특별시 서초구 서초대로 240, 203~206호 (서초동, 동일하이빌)",선플러스치과의원,37.49156929999999,127.0083321,583-7528
,"서울특별시 강동구 천호대로 1006, 307호, 308호 (성내동)",쿨맨비뇨의학과의원,37.5379785,127.1237927,02-471-7011
서울특별시 구로구 구로동 612-7,"서울특별시 구로구 구로중앙로 217, 지하1층, 5~8층 (구로동)",이안과의원,37.5050561,126.8768295,02-6382-7007
서울특별시 서초구 반포동 722-20 브랜드칸 타워,"서울특별시 서초구 강남대로 527, 브랜드칸 타워 4층 (반포동)",블랑쉬치과의원,37.50903539999999,127.0218996,02-1877-2882
서울특별시 강남구 역삼동 826,"서울특별시 강남구 강남대로 374, 지하1층 (역삼동)",헤이데이의원,37.4962484,127.0287983,02-2135-6996
,"서울특별시 송파구 충민로2길 28 (장지동, 대진프라자 304호)",푸른소아청소년과의원,37.4771259,127.1274175,02-429-4800
서울특별시 성동구 금호동4가 559,"서울특별시 성동구 독서당로 300, 3,4층 (금호동4가)",강남호랑이마취통증의학과의원,37.545465,127.0243047,02-2281-7588
,"서울특별시 광진구 구의로 7, 2층 (구의동)",성모푸른내과의원,37.5386069,127.0890442,02-6094-7575
서울특별시 서초구 서초동 1690번지 3호 신한은행,"서울특별시 서초구 서초대로 327, 2,3층 (서초동)",연세굿초이스정형외과의원,37.4950448,127.0172675,02-525-2900
서울특별시 강남구 역삼동 601-18 은성빌딩,"서울특별시 강남구 봉은사로 116, 은성빌딩 4층 (역삼동)",블리스의원,37.5046841,127.0264266,02-556-7575
서울특별시 금천구 시흥동 903 3층 303호,"서울특별시 금천구 시흥대로 192, 3층 303호 (시흥동)",경희한의원,37.4510792,126.9023037,02-805-1075
